[
  {
    "id": 14142,
    "name": "Aberfoyle Creek 16018405902 (16018405902)",
    "longitude": -80.144794,
    "latitude": 43.469313
  },
  {
    "id": 14309,
    "name": "Aberfoyle Creek 16018406002 (16018406002)",
    "longitude": -80.162814,
    "latitude": 43.454516
  },
  {
    "id": 14022,
    "name": "Aberfoyle Creek 16018406102 (16018406102)",
    "longitude": -80.15413,
    "latitude": 43.468213
  },
  {
    "id": 13991,
    "name": "Aberfoyle Creek North 16018410802 (16018410802)",
    "longitude": -80.152009,
    "latitude": 43.472731
  },
  {
    "id": 197303,
    "name": "ABERFOYLE CREEK STATION (16018405902)",
    "longitude": -80.144794,
    "latitude": 43.469313
  },
  {
    "id": 196092,
    "name": "ABERFOYLE CREEK STATION (16018406002)",
    "longitude": -80.162814,
    "latitude": 43.454516
  },
  {
    "id": 195957,
    "name": "ABERFOYLE CREEK STATION (16018406102)",
    "longitude": -80.15413,
    "latitude": 43.468213
  },
  {
    "id": 195549,
    "name": "ABERFOYLE CREEK STATION (16018410802)",
    "longitude": -80.152009,
    "latitude": 43.472731
  },
  {
    "id": 13477,
    "name": "Abitibi River 19006400502 (19006400502)",
    "longitude": -80.677077,
    "latitude": 48.775512
  },
  {
    "id": 13307,
    "name": "Abitibi River 19006400602 (19006400602)",
    "longitude": -80.670189,
    "latitude": 48.761848
  },
  {
    "id": 15133,
    "name": "Abitibi River 19006402202 (19006402202)",
    "longitude": -81.066963,
    "latitude": 49.297552
  },
  {
    "id": 14819,
    "name": "Abitibi River 19006402302 (19006402302)",
    "longitude": -80.86298,
    "latitude": 49.058836
  },
  {
    "id": 14079,
    "name": "Abitibi River 19006403002 (19006403002)",
    "longitude": -80.956791,
    "latitude": 49.187388
  },
  {
    "id": 13336,
    "name": "Abitibi River 19006403102 (19006403102)",
    "longitude": -80.667656,
    "latitude": 48.7617
  },
  {
    "id": 13380,
    "name": "Abitibi River 19006403202 (19006403202)",
    "longitude": -80.672789,
    "latitude": 48.757217
  },
  {
    "id": 13466,
    "name": "Abitibi River 19006403602 (19006403602)",
    "longitude": -81.408336,
    "latitude": 50.644081
  },
  {
    "id": 196468,
    "name": "ABITIBI RIVER STATION (19006400502)",
    "longitude": -80.677077,
    "latitude": 48.775512
  },
  {
    "id": 195640,
    "name": "ABITIBI RIVER STATION (19006400602)",
    "longitude": -80.670189,
    "latitude": 48.761848
  },
  {
    "id": 196164,
    "name": "ABITIBI RIVER STATION (19006402302)",
    "longitude": -80.86298,
    "latitude": 49.058836
  },
  {
    "id": 196849,
    "name": "ABITIBI RIVER STATION (19006403002)",
    "longitude": -80.956791,
    "latitude": 49.187388
  },
  {
    "id": 197244,
    "name": "ABITIBI RIVER STATION (19006403102)",
    "longitude": -80.667656,
    "latitude": 48.7617
  },
  {
    "id": 195989,
    "name": "ABITIBI RIVER STATION (19006403202)",
    "longitude": -80.672789,
    "latitude": 48.757217
  },
  {
    "id": 196500,
    "name": "ABITIBI RIVER STATION (19006403602)",
    "longitude": -81.408336,
    "latitude": 50.644081
  },
  {
    "id": 14543,
    "name": "Agawa River 01001200102 (01001200102)",
    "longitude": -84.636811,
    "latitude": 47.357891
  },
  {
    "id": 197196,
    "name": "AGAWA RIVER STATION (01001200102)",
    "longitude": -84.636811,
    "latitude": 47.357891
  },
  {
    "id": 15058,
    "name": "Agnes Lake Inlet 19000102502 (19000102502)",
    "longitude": -91.365989,
    "latitude": 48.130938
  },
  {
    "id": 195309,
    "name": "AGNES LAKE INLET STATION (19000102502)",
    "longitude": -91.365989,
    "latitude": 48.130938
  },
  {
    "id": 14115,
    "name": "Agnes River 19000102602 (19000102602)",
    "longitude": -91.319268,
    "latitude": 48.313839
  },
  {
    "id": 195588,
    "name": "AGNES RIVER STATION (19000102602)",
    "longitude": -91.319268,
    "latitude": 48.313839
  },
  {
    "id": 13549,
    "name": "Aguasabon Diversion 01007500202 (01007500202)",
    "longitude": -87.158488,
    "latitude": 48.785488
  },
  {
    "id": 196401,
    "name": "AGUASABON DIVERSION STATION (01007500202)",
    "longitude": -87.158488,
    "latitude": 48.785488
  },
  {
    "id": 13492,
    "name": "Aguasabon River 01007500102 (01007500102)",
    "longitude": -87.114911,
    "latitude": 48.785785
  },
  {
    "id": 195988,
    "name": "AGUASABON RIVER STATION (01007500102)",
    "longitude": -87.114911,
    "latitude": 48.785785
  },
  {
    "id": 13310,
    "name": "Albany River 19005300102 (19005300102)",
    "longitude": -86.392931,
    "latitude": 51.651192
  },
  {
    "id": 14254,
    "name": "Albany River 19005300302 (19005300302)",
    "longitude": -83.389378,
    "latitude": 51.34785
  },
  {
    "id": 14646,
    "name": "Albany River 19005300702 (19005300702)",
    "longitude": -84.3277,
    "latitude": 51.23392
  },
  {
    "id": 13458,
    "name": "Albany River 19005300802 (19005300802)",
    "longitude": -84.59146,
    "latitude": 51.12277
  },
  {
    "id": 196349,
    "name": "ALBANY RIVER STATION (19005300102)",
    "longitude": -86.392931,
    "latitude": 51.651192
  },
  {
    "id": 197093,
    "name": "ALBANY RIVER STATION (19005300302)",
    "longitude": -83.389378,
    "latitude": 51.34785
  },
  {
    "id": 196842,
    "name": "Albany River STATION (19005300702)",
    "longitude": -84.3277,
    "latitude": 51.23392
  },
  {
    "id": 197066,
    "name": "ALBANY RIVER STATION (19005300802)",
    "longitude": -84.59146,
    "latitude": 51.12277
  },
  {
    "id": 196035,
    "name": "ALBEMARBLE BROOK STATION (08013500402)",
    "longitude": -81.219186,
    "latitude": 44.834175
  },
  {
    "id": 14639,
    "name": "Albemarle Brook 08013500402 (08013500402)",
    "longitude": -81.219186,
    "latitude": 44.834175
  },
  {
    "id": 13612,
    "name": "Alder Creek 16018402502 (16018402502)",
    "longitude": -80.534662,
    "latitude": 43.353217
  },
  {
    "id": 13164,
    "name": "Alder Creek 16018402602 (16018402602)",
    "longitude": -80.549222,
    "latitude": 43.397586
  },
  {
    "id": 14442,
    "name": "Alder Creek 16018403802 (16018403802)",
    "longitude": -80.531135,
    "latitude": 43.343497
  },
  {
    "id": 195963,
    "name": "ALDER CREEK STATION (16018402502)",
    "longitude": -80.534662,
    "latitude": 43.353217
  },
  {
    "id": 196456,
    "name": "ALDER CREEK STATION (16018402602)",
    "longitude": -80.549222,
    "latitude": 43.397586
  },
  {
    "id": 196005,
    "name": "ALDER CREEK STATION (16018403802)",
    "longitude": -80.531135,
    "latitude": 43.343497
  },
  {
    "id": 15120,
    "name": "Algona Ditch 16019100209 (16019100209)",
    "longitude": -79.243674,
    "latitude": 42.879171
  },
  {
    "id": 14166,
    "name": "Alice Lake Inlet 03013401702 (03013401702)",
    "longitude": -80.857192,
    "latitude": 46.465004
  },
  {
    "id": 195348,
    "name": "ALICE LAKE INLET STATION (03013401702)",
    "longitude": -80.857192,
    "latitude": 46.465004
  },
  {
    "id": 14555,
    "name": "Alligator Creek 18771001102 (18771001102)",
    "longitude": -79.888445,
    "latitude": 47.839282
  },
  {
    "id": 14441,
    "name": "Alligator Creek 18771001202 (18771001202)",
    "longitude": -79.867956,
    "latitude": 47.843596
  },
  {
    "id": 196318,
    "name": "ALLIGATOR CREEK STATION (18771001102)",
    "longitude": -79.888445,
    "latitude": 47.839282
  },
  {
    "id": 197319,
    "name": "ALLIGATOR CREEK STATION (18771001202)",
    "longitude": -79.867956,
    "latitude": 47.843596
  },
  {
    "id": 195490,
    "name": "ALMA TRIBUTARY OF CARROLL CR. STATION (16018411402)",
    "longitude": -80.505147,
    "latitude": 43.675542
  },
  {
    "id": 13269,
    "name": "Amable Du Fond River 18607008002 (18607008002)",
    "longitude": -78.904285,
    "latitude": 46.286709
  },
  {
    "id": 195302,
    "name": "AMABLE DU FOND RIVER STATION (18607008002)",
    "longitude": -78.904285,
    "latitude": 46.286709
  },
  {
    "id": 14951,
    "name": "Amikougami Creek 18771001002 (18771001002)",
    "longitude": -80.089159,
    "latitude": 48.118933
  },
  {
    "id": 196761,
    "name": "AMIKOUGAMI CREEK STATION (18771001002)",
    "longitude": -80.089159,
    "latitude": 48.118933
  },
  {
    "id": 14860,
    "name": "Anstruther Lake Outlet 17002113902 (17002113902)",
    "longitude": -78.240718,
    "latitude": 44.725177
  },
  {
    "id": 195413,
    "name": "ANSTRUTHER LAKE OUTLET STATION (17002113902)",
    "longitude": -78.240718,
    "latitude": 44.725177
  },
  {
    "id": 13758,
    "name": "Asheweig River 19001800202 (19001800202)",
    "longitude": -87.821649,
    "latitude": 53.799966
  },
  {
    "id": 196002,
    "name": "ASHEWEIG RIVER STATION (19001800202)",
    "longitude": -87.821649,
    "latitude": 53.799966
  },
  {
    "id": 13488,
    "name": "Attawapiskat River 19004300102 (19004300102)",
    "longitude": -85.064883,
    "latitude": 53.090026
  },
  {
    "id": 196754,
    "name": "ATTAWAPISKAT RIVER STATION (19004300102)",
    "longitude": -85.064883,
    "latitude": 53.090026
  },
  {
    "id": 196889,
    "name": "ATTAWAPISKAT RIVER STATION (19004300402)",
    "longitude": -87.065466,
    "latitude": 52.086178
  },
  {
    "id": 196986,
    "name": "ATTAWAPISKAT RIVER STATION (19004300502)",
    "longitude": -83.368325,
    "latitude": 52.931845
  },
  {
    "id": 14933,
    "name": "Auger Lake 17002111201 (17002111201)",
    "longitude": -78.048946,
    "latitude": 45.00097
  },
  {
    "id": 195904,
    "name": "AUGER LAKE STATION (17002111201)",
    "longitude": -78.048946,
    "latitude": 45.00097
  },
  {
    "id": 13284,
    "name": "Aurora Creek 03007700702 (03007700702)",
    "longitude": -79.472855,
    "latitude": 44.0222
  },
  {
    "id": 197231,
    "name": "AURORA CREEK STATION (03007700702)",
    "longitude": -79.472855,
    "latitude": 44.0222
  },
  {
    "id": 14577,
    "name": "Ausable River 08002200102 (08002200102)",
    "longitude": -81.76391,
    "latitude": 43.31307
  },
  {
    "id": 14398,
    "name": "Ausable River 08002200602 (08002200602)",
    "longitude": -81.499005,
    "latitude": 43.360015
  },
  {
    "id": 13449,
    "name": "Ausable River 08002200802 (08002200802)",
    "longitude": -81.336337,
    "latitude": 43.444772
  },
  {
    "id": 13470,
    "name": "Ausable River 08002201102 (08002201102)",
    "longitude": -81.527881,
    "latitude": 43.263771
  },
  {
    "id": 13396,
    "name": "Ausable River 08002201302 (08002201302)",
    "longitude": -81.75704,
    "latitude": 43.311838
  },
  {
    "id": 14161,
    "name": "Ausable River 08002201502 (08002201502)",
    "longitude": -81.680543,
    "latitude": 43.066896
  },
  {
    "id": 14002,
    "name": "Ausable River 08002201602 (08002201602)",
    "longitude": -81.509447,
    "latitude": 43.362117
  },
  {
    "id": 13392,
    "name": "Ausable River 08002201702 (08002201702)",
    "longitude": -81.457405,
    "latitude": 43.358682
  },
  {
    "id": 14728,
    "name": "Ausable River 08002201802 (08002201802)",
    "longitude": -81.773785,
    "latitude": 43.237442
  },
  {
    "id": 14112,
    "name": "Ausable River 08002202002 (08002202002)",
    "longitude": -81.660258,
    "latitude": 43.072368
  },
  {
    "id": 197150,
    "name": "AUSABLE RIVER STATION (08002200102)",
    "longitude": -81.76391,
    "latitude": 43.31307
  },
  {
    "id": 195789,
    "name": "AUSABLE RIVER STATION (08002200602)",
    "longitude": -81.499005,
    "latitude": 43.360015
  },
  {
    "id": 197133,
    "name": "AUSABLE RIVER STATION (08002200802)",
    "longitude": -81.336337,
    "latitude": 43.444772
  },
  {
    "id": 196902,
    "name": "AUSABLE RIVER STATION (08002201102)",
    "longitude": -81.527881,
    "latitude": 43.263771
  },
  {
    "id": 196571,
    "name": "AUSABLE RIVER STATION (08002201302)",
    "longitude": -81.75704,
    "latitude": 43.311838
  },
  {
    "id": 195619,
    "name": "AUSABLE RIVER STATION (08002201502)",
    "longitude": -81.680543,
    "latitude": 43.066896
  },
  {
    "id": 196874,
    "name": "AUSABLE RIVER STATION (08002201602)",
    "longitude": -81.509447,
    "latitude": 43.362117
  },
  {
    "id": 197040,
    "name": "AUSABLE RIVER STATION (08002201702)",
    "longitude": -81.457405,
    "latitude": 43.358682
  },
  {
    "id": 196303,
    "name": "AUSABLE RIVER STATION (08002201802)",
    "longitude": -81.773785,
    "latitude": 43.237442
  },
  {
    "id": 195563,
    "name": "AUSABLE RIVER STATION (08002202002)",
    "longitude": -81.660258,
    "latitude": 43.072368
  },
  {
    "id": 15091,
    "name": "Ausable River tributary 08002200502 (08002200502)",
    "longitude": -81.518818,
    "latitude": 43.282198
  },
  {
    "id": 13962,
    "name": "Aux Sables River 14002806402 (14002806402)",
    "longitude": -82.150919,
    "latitude": 46.276446
  },
  {
    "id": 197033,
    "name": "AUX SABLES RIVER STATION (14002806402)",
    "longitude": -82.150919,
    "latitude": 46.276446
  },
  {
    "id": 15175,
    "name": "Avon River 04001302502 (04001302502)",
    "longitude": -81.01867,
    "latitude": 43.366058
  },
  {
    "id": 196667,
    "name": "AVON RIVER STATION (04001302502)",
    "longitude": -81.01867,
    "latitude": 43.366058
  },
  {
    "id": 13288,
    "name": "Baden Creek 16018402002 (16018402002)",
    "longitude": -80.660259,
    "latitude": 43.393017
  },
  {
    "id": 13474,
    "name": "Baden Creek 16018409802 (16018409802)",
    "longitude": -80.655072,
    "latitude": 43.381563
  },
  {
    "id": 196929,
    "name": "BADEN CREEK STATION (16018402002)",
    "longitude": -80.660259,
    "latitude": 43.393017
  },
  {
    "id": 195614,
    "name": "BADEN CREEK STATION (16018409802)",
    "longitude": -80.655072,
    "latitude": 43.381563
  },
  {
    "id": 13460,
    "name": "Baker Creek 05000500102 (05000500102)",
    "longitude": -79.008168,
    "latitude": 42.972689
  },
  {
    "id": 195628,
    "name": "BAKER CREEK STATION (05000500102)",
    "longitude": -79.008168,
    "latitude": 42.972689
  },
  {
    "id": 14287,
    "name": "Balmer Creek 19000101602 (19000101602)",
    "longitude": -93.73428,
    "latitude": 51.053079
  },
  {
    "id": 13177,
    "name": "Balmer Creek 19000103202 (19000103202)",
    "longitude": -93.736681,
    "latitude": 51.029764
  },
  {
    "id": 195646,
    "name": "BALMER CREEK STATION (19000101602)",
    "longitude": -93.73428,
    "latitude": 51.053079
  },
  {
    "id": 195992,
    "name": "BALMER CREEK STATION (19000103202)",
    "longitude": -93.736681,
    "latitude": 51.029764
  },
  {
    "id": 14886,
    "name": "Balsam Lake Outlet 17002105402 (17002105402)",
    "longitude": -78.78595,
    "latitude": 44.57366
  },
  {
    "id": 195691,
    "name": "BALSAM LAKE OUTLET STATION (17002105402)",
    "longitude": -78.78595,
    "latitude": 44.57366
  },
  {
    "id": 14018,
    "name": "Baptiste Creek 04001300602 (04001300602)",
    "longitude": -82.435776,
    "latitude": 42.304045
  },
  {
    "id": 195608,
    "name": "BAPTISTE CREEK STATION (04001300602)",
    "longitude": -82.435776,
    "latitude": 42.304045
  },
  {
    "id": 14705,
    "name": "Bar River 02000600102 (02000600102)",
    "longitude": -84.088646,
    "latitude": 46.425125
  },
  {
    "id": 197194,
    "name": "BAR RIVER STATION (02000600102)",
    "longitude": -84.088646,
    "latitude": 46.425125
  },
  {
    "id": 13367,
    "name": "Batchawana River 07003100102 (07003100102)",
    "longitude": -84.528487,
    "latitude": 46.932939
  },
  {
    "id": 195858,
    "name": "BATCHAWANA RIVER STATION (07003100102)",
    "longitude": -84.528487,
    "latitude": 46.932939
  },
  {
    "id": 13162,
    "name": "Batteaux River 03005400102 (03005400102)",
    "longitude": -80.167091,
    "latitude": 44.488319
  },
  {
    "id": 14801,
    "name": "Batteaux River 03005400202 (03005400202)",
    "longitude": -80.159353,
    "latitude": 44.405131
  },
  {
    "id": 196283,
    "name": "BATTEAUX RIVER STATION (03005400102)",
    "longitude": -80.167091,
    "latitude": 44.488319
  },
  {
    "id": 196065,
    "name": "BATTEAUX RIVER STATION (03005400202)",
    "longitude": -80.159353,
    "latitude": 44.405131
  },
  {
    "id": 13453,
    "name": "Baxter Creek 17002101002 (17002101002)",
    "longitude": -78.398836,
    "latitude": 44.177452
  },
  {
    "id": 13476,
    "name": "Baxter Creek 17002106902 (17002106902)",
    "longitude": -78.409189,
    "latitude": 44.169914
  },
  {
    "id": 13618,
    "name": "Baxter Creek 17002107702 (17002107702)",
    "longitude": -78.457325,
    "latitude": 44.135342
  },
  {
    "id": 196218,
    "name": "BAXTER CREEK STATION (17002101002)",
    "longitude": -78.398836,
    "latitude": 44.177452
  },
  {
    "id": 196940,
    "name": "BAXTER CREEK STATION (17002106902)",
    "longitude": -78.409189,
    "latitude": 44.169914
  },
  {
    "id": 197043,
    "name": "BAXTER CREEK STATION (17002107702)",
    "longitude": -78.457325,
    "latitude": 44.135342
  },
  {
    "id": 15033,
    "name": "Bayfield River 08004000102 (08004000102)",
    "longitude": -81.698625,
    "latitude": 43.56893
  },
  {
    "id": 14906,
    "name": "BAYFIELD RIVER 08004000183 (08004000183)",
    "longitude": -81.050821,
    "latitude": 43.626125
  },
  {
    "id": 14379,
    "name": "Bayfield River 08004000202 (08004000202)",
    "longitude": -81.406622,
    "latitude": 43.537783
  },
  {
    "id": 14814,
    "name": "Bayfield River 08004000602 (08004000602)",
    "longitude": -81.557685,
    "latitude": 43.588838
  },
  {
    "id": 14199,
    "name": "Bayfield River 08004000783 (08004000783)",
    "longitude": -81.698634,
    "latitude": 43.568936
  },
  {
    "id": 13429,
    "name": "Bayfield River 08004000802 (08004000802)",
    "longitude": -81.589372,
    "latitude": 43.550718
  },
  {
    "id": 14109,
    "name": "Bayfield River 08004000902 (08004000902)",
    "longitude": -81.430311,
    "latitude": 43.54497
  },
  {
    "id": 14976,
    "name": "Bayfield River 08004001002 (08004001002)",
    "longitude": -81.581007,
    "latitude": 43.565648
  },
  {
    "id": 197083,
    "name": "BAYFIELD RIVER STATION (08004000102)",
    "longitude": -81.698625,
    "latitude": 43.56893
  },
  {
    "id": 197112,
    "name": "BAYFIELD RIVER STATION (08004000183)",
    "longitude": -81.701506,
    "latitude": 43.566771
  },
  {
    "id": 197096,
    "name": "BAYFIELD RIVER STATION (08004000202)",
    "longitude": -81.406622,
    "latitude": 43.537783
  },
  {
    "id": 197000,
    "name": "BAYFIELD RIVER STATION (08004000602)",
    "longitude": -81.557685,
    "latitude": 43.588838
  },
  {
    "id": 196137,
    "name": "BAYFIELD RIVER STATION (08004000783)",
    "longitude": -81.698634,
    "latitude": 43.568936
  },
  {
    "id": 196798,
    "name": "BAYFIELD RIVER STATION (08004000802)",
    "longitude": -81.589372,
    "latitude": 43.550718
  },
  {
    "id": 197301,
    "name": "BAYFIELD RIVER STATION (08004000902)",
    "longitude": -81.430311,
    "latitude": 43.54497
  },
  {
    "id": 196453,
    "name": "BAYFIELD RIVER STATION (08004001002)",
    "longitude": -81.581007,
    "latitude": 43.565648
  },
  {
    "id": 14694,
    "name": "Bear Brook 18207000402 (18207000402)",
    "longitude": -75.084249,
    "latitude": 45.420554
  },
  {
    "id": 14688,
    "name": "Bear Brook 18207012002 (18207012002)",
    "longitude": -75.485901,
    "latitude": 45.362931
  },
  {
    "id": 14919,
    "name": "Bear Brook 18207013002 (18207013002)",
    "longitude": -75.474731,
    "latitude": 45.374293
  },
  {
    "id": 195768,
    "name": "Bear Brook STATION (18207000402)",
    "longitude": -75.084249,
    "latitude": 45.420554
  },
  {
    "id": 196621,
    "name": "BEAR BROOK STATION (18207012002)",
    "longitude": -75.485901,
    "latitude": 45.362931
  },
  {
    "id": 195922,
    "name": "BEAR BROOK STATION (18207013002)",
    "longitude": -75.474731,
    "latitude": 45.374293
  },
  {
    "id": 14706,
    "name": "Bear Creek 03005703502 (03005703502)",
    "longitude": -79.854763,
    "latitude": 44.330102
  },
  {
    "id": 13552,
    "name": "Bear Creek 04002700302 (04002700302)",
    "longitude": -82.146811,
    "latitude": 42.869666
  },
  {
    "id": 13850,
    "name": "Bear Creek 04002700402 (04002700402)",
    "longitude": -82.169234,
    "latitude": 42.864198
  },
  {
    "id": 13862,
    "name": "Bear Creek 04002700802 (04002700802)",
    "longitude": -82.341582,
    "latitude": 42.764077
  },
  {
    "id": 14603,
    "name": "Bear Creek 04002701002 (04002701002)",
    "longitude": -82.123439,
    "latitude": 42.897565
  },
  {
    "id": 15134,
    "name": "Bear Creek 04002701402 (04002701402)",
    "longitude": -82.118804,
    "latitude": 42.905892
  },
  {
    "id": 196810,
    "name": "BEAR CREEK STATION (03005703502)",
    "longitude": -79.854763,
    "latitude": 44.330102
  },
  {
    "id": 195594,
    "name": "BEAR CREEK STATION (04002700302)",
    "longitude": -82.146811,
    "latitude": 42.869666
  },
  {
    "id": 196783,
    "name": "BEAR CREEK STATION (04002700402)",
    "longitude": -82.169234,
    "latitude": 42.864198
  },
  {
    "id": 196784,
    "name": "BEAR CREEK STATION (04002700802)",
    "longitude": -82.341582,
    "latitude": 42.764077
  },
  {
    "id": 197107,
    "name": "BEAR CREEK STATION (04002701002)",
    "longitude": -82.123439,
    "latitude": 42.897565
  },
  {
    "id": 196237,
    "name": "BEAR CREEK STATION (04002701402)",
    "longitude": -82.118804,
    "latitude": 42.905892
  },
  {
    "id": 13635,
    "name": "Beatty Saugeen River 08012301102 (08012301102)",
    "longitude": -81.000896,
    "latitude": 44.137179
  },
  {
    "id": 13980,
    "name": "Beatty Saugeen River 08012305002 (08012305002)",
    "longitude": -80.967365,
    "latitude": 44.130983
  },
  {
    "id": 196958,
    "name": "BEATTY SAUGEEN RIVER STATION (08012301102)",
    "longitude": -81.000896,
    "latitude": 44.137179
  },
  {
    "id": 195414,
    "name": "BEATTY SAUGEEN RIVER STATION (08012305002)",
    "longitude": -80.967365,
    "latitude": 44.130983
  },
  {
    "id": 15025,
    "name": "Beauchamps Drain 08005604102 (08005604102)",
    "longitude": -81.24871,
    "latitude": 43.704436
  },
  {
    "id": 196308,
    "name": "BEAUCHAMPS DRAIN STATION (08005604102)",
    "longitude": -81.24871,
    "latitude": 43.704436
  },
  {
    "id": 14718,
    "name": "Beaudette River 12008000102 (12008000102)",
    "longitude": -74.493847,
    "latitude": 45.273196
  },
  {
    "id": 13750,
    "name": "Beaudette River 12008000202 (12008000202)",
    "longitude": -74.730538,
    "latitude": 45.213369
  },
  {
    "id": 14061,
    "name": "Beaudette River 12008000302 (12008000302)",
    "longitude": -74.449787,
    "latitude": 45.282169
  },
  {
    "id": 197221,
    "name": "BEAUDETTE RIVER STATION (12008000102)",
    "longitude": -74.493847,
    "latitude": 45.273196
  },
  {
    "id": 195449,
    "name": "BEAUDETTE RIVER STATION (12008000202)",
    "longitude": -74.730538,
    "latitude": 45.213369
  },
  {
    "id": 197014,
    "name": "BEAUDETTE RIVER STATION (12008000302)",
    "longitude": -74.449787,
    "latitude": 45.282169
  },
  {
    "id": 14831,
    "name": "Beaver Creek 16008700602 (16008700602)",
    "longitude": -81.197592,
    "latitude": 42.707479
  },
  {
    "id": 13238,
    "name": "Beaver Creek 16008701102 (16008701102)",
    "longitude": -81.148484,
    "latitude": 42.705656
  },
  {
    "id": 15022,
    "name": "Beaver Creek 17002109502 (17002109502)",
    "longitude": -77.697517,
    "latitude": 44.533915
  },
  {
    "id": 13240,
    "name": "Beaver Creek 17002109602 (17002109602)",
    "longitude": -77.601668,
    "latitude": 44.852863
  },
  {
    "id": 196428,
    "name": "BEAVER CREEK STATION (16008700602)",
    "longitude": -81.197592,
    "latitude": 42.707479
  },
  {
    "id": 195518,
    "name": "BEAVER CREEK STATION (17002109502)",
    "longitude": -77.697517,
    "latitude": 44.533915
  },
  {
    "id": 196989,
    "name": "BEAVER CREEK STATION (17002109602)",
    "longitude": -77.601668,
    "latitude": 44.852863
  },
  {
    "id": 15252,
    "name": "Beaver Lake Outlet 17002102202 (17002102202)",
    "longitude": -78.274586,
    "latitude": 44.734759
  },
  {
    "id": 196314,
    "name": "BEAVER LAKE OUTLET STATION (17002102202)",
    "longitude": -78.274586,
    "latitude": 44.734759
  },
  {
    "id": 15199,
    "name": "Beaver River 03003600102 (03003600102)",
    "longitude": -80.448965,
    "latitude": 44.564119
  },
  {
    "id": 13892,
    "name": "Beaver River 03003600202 (03003600202)",
    "longitude": -80.450777,
    "latitude": 44.562819
  },
  {
    "id": 14563,
    "name": "Beaver River 03003600302 (03003600302)",
    "longitude": -80.538474,
    "latitude": 44.393535
  },
  {
    "id": 14333,
    "name": "Beaver River 03003600402 (03003600402)",
    "longitude": -80.538011,
    "latitude": 44.391769
  },
  {
    "id": 13570,
    "name": "Beaver River 03003600602 (03003600602)",
    "longitude": -80.377703,
    "latitude": 44.33799
  },
  {
    "id": 14544,
    "name": "Beaver River 03003600702 (03003600702)",
    "longitude": -80.3684,
    "latitude": 44.35391
  },
  {
    "id": 13393,
    "name": "Beaver River 03003600802 (03003600802)",
    "longitude": -80.363024,
    "latitude": 44.335946
  },
  {
    "id": 14293,
    "name": "Beaver River 03003600902 (03003600902)",
    "longitude": -80.540151,
    "latitude": 44.346043
  },
  {
    "id": 15157,
    "name": "Beaver River 03003601002 (03003601002)",
    "longitude": -80.466744,
    "latitude": 44.520279
  },
  {
    "id": 196653,
    "name": "BEAVER RIVER STATION (03003600102)",
    "longitude": -80.448965,
    "latitude": 44.564119
  },
  {
    "id": 196609,
    "name": "BEAVER RIVER STATION (03003600202)",
    "longitude": -80.450777,
    "latitude": 44.562819
  },
  {
    "id": 196050,
    "name": "BEAVER RIVER STATION (03003600302)",
    "longitude": -80.538474,
    "latitude": 44.393535
  },
  {
    "id": 196934,
    "name": "BEAVER RIVER STATION (03003600402)",
    "longitude": -80.538011,
    "latitude": 44.391769
  },
  {
    "id": 196496,
    "name": "BEAVER RIVER STATION (03003600602)",
    "longitude": -80.377703,
    "latitude": 44.33799
  },
  {
    "id": 195412,
    "name": "BEAVER RIVER STATION (03003600702)",
    "longitude": -80.3684,
    "latitude": 44.35391
  },
  {
    "id": 197226,
    "name": "BEAVER RIVER STATION (03003600802)",
    "longitude": -80.363024,
    "latitude": 44.335946
  },
  {
    "id": 196574,
    "name": "BEAVER RIVER STATION (03003600902)",
    "longitude": -80.540151,
    "latitude": 44.346043
  },
  {
    "id": 195571,
    "name": "BEAVER RIVER STATION (03003601002)",
    "longitude": -80.466744,
    "latitude": 44.520279
  },
  {
    "id": 14584,
    "name": "Beaverton River 03007701002 (03007701002)",
    "longitude": -79.1644,
    "latitude": 44.4322
  },
  {
    "id": 13451,
    "name": "Beaverton River 03007701102 (03007701102)",
    "longitude": -79.055136,
    "latitude": 44.352083
  },
  {
    "id": 14655,
    "name": "Beaverton River 03007702502 (03007702502)",
    "longitude": -79.159958,
    "latitude": 44.431137
  },
  {
    "id": 14754,
    "name": "Beaverton River 03007704102 (03007704102)",
    "longitude": -79.155102,
    "latitude": 44.430296
  },
  {
    "id": 196446,
    "name": "BEAVERTON RIVER STATION (03007701002)",
    "longitude": -79.1644,
    "latitude": 44.4322
  },
  {
    "id": 195748,
    "name": "BEAVERTON RIVER STATION (03007701102)",
    "longitude": -79.055136,
    "latitude": 44.352083
  },
  {
    "id": 196300,
    "name": "BEAVERTON RIVER STATION (03007702502)",
    "longitude": -79.159958,
    "latitude": 44.431137
  },
  {
    "id": 196057,
    "name": "BEAVERTON RIVER STATION (03007704102)",
    "longitude": -79.155102,
    "latitude": 44.430296
  },
  {
    "id": 14210,
    "name": "Beeton Creek 03005701302 (03005701302)",
    "longitude": -79.785113,
    "latitude": 44.095183
  },
  {
    "id": 14612,
    "name": "Beeton Creek 03005701402 (03005701402)",
    "longitude": -79.77136,
    "latitude": 44.107835
  },
  {
    "id": 14896,
    "name": "Beeton Creek 03005702402 (03005702402)",
    "longitude": -79.811227,
    "latitude": 44.041089
  },
  {
    "id": 14509,
    "name": "Beeton Creek 03005703202 (03005703202)",
    "longitude": -79.758921,
    "latitude": 44.123344
  },
  {
    "id": 197212,
    "name": "BEETON CREEK STATION (03005701302)",
    "longitude": -79.785113,
    "latitude": 44.095183
  },
  {
    "id": 196417,
    "name": "BEETON CREEK STATION (03005701402)",
    "longitude": -79.77136,
    "latitude": 44.107835
  },
  {
    "id": 195462,
    "name": "BEETON CREEK STATION (03005702402)",
    "longitude": -79.811227,
    "latitude": 44.041089
  },
  {
    "id": 195366,
    "name": "BEETON CREEK STATION (03005703202)",
    "longitude": -79.758921,
    "latitude": 44.123344
  },
  {
    "id": 14540,
    "name": "Belgrave Creek 08005603002 (08005603002)",
    "longitude": -81.444205,
    "latitude": 43.819634
  },
  {
    "id": 195742,
    "name": "BELGRAVE CREEK STATION (08005603002)",
    "longitude": -81.444205,
    "latitude": 43.819634
  },
  {
    "id": 14629,
    "name": "Belle River 04000700102 (04000700102)",
    "longitude": -82.711233,
    "latitude": 42.295811
  },
  {
    "id": 13767,
    "name": "Belle River 04000700202 (04000700202)",
    "longitude": -82.718192,
    "latitude": 42.230445
  },
  {
    "id": 196703,
    "name": "BELLE RIVER STATION (04000700102)",
    "longitude": -82.711233,
    "latitude": 42.295811
  },
  {
    "id": 195865,
    "name": "BELLE RIVER STATION (04000700202)",
    "longitude": -82.718192,
    "latitude": 42.230445
  },
  {
    "id": 14143,
    "name": "Bennett Creek 13000700102 (13000700102)",
    "longitude": -84.409296,
    "latitude": 46.521765
  },
  {
    "id": 13699,
    "name": "Bennett Creek 13000700302 (13000700302)",
    "longitude": -84.406329,
    "latitude": 46.536397
  },
  {
    "id": 196894,
    "name": "BENNETT CREEK STATION (13000700102)",
    "longitude": -84.409296,
    "latitude": 46.521765
  },
  {
    "id": 195991,
    "name": "BENNETT CREEK STATION (13000700302)",
    "longitude": -84.406329,
    "latitude": 46.536397
  },
  {
    "id": 15192,
    "name": "Bentley Creek 17002106302 (17002106302)",
    "longitude": -77.92254,
    "latitude": 45.015745
  },
  {
    "id": 14884,
    "name": "Bentley Creek 17002106402 (17002106402)",
    "longitude": -77.914483,
    "latitude": 45.022754
  },
  {
    "id": 196992,
    "name": "BENTLEY CREEK STATION (17002106302)",
    "longitude": -77.92254,
    "latitude": 45.015745
  },
  {
    "id": 196472,
    "name": "BENTLEY CREEK STATION (17002106402)",
    "longitude": -77.914483,
    "latitude": 45.022754
  },
  {
    "id": 13636,
    "name": "Bernard Creek 03012400402 (03012400402)",
    "longitude": -79.4266,
    "latitude": 45.710659
  },
  {
    "id": 14701,
    "name": "Bernard Creek 03012400502 (03012400502)",
    "longitude": -79.451765,
    "latitude": 45.607467
  },
  {
    "id": 195722,
    "name": "BERNARD CREEK STATION (03012400402)",
    "longitude": -79.4266,
    "latitude": 45.710659
  },
  {
    "id": 196266,
    "name": "BERNARD CREEK STATION (03012400502)",
    "longitude": -79.451765,
    "latitude": 45.607467
  },
  {
    "id": 14297,
    "name": "Big Carp River 13000300102 (13000300102)",
    "longitude": -84.449872,
    "latitude": 46.506229
  },
  {
    "id": 195737,
    "name": "BIG CARP RIVER STATION (13000300102)",
    "longitude": -84.449872,
    "latitude": 46.506229
  },
  {
    "id": 13605,
    "name": "Big Creek 04001303302 (04001303302)",
    "longitude": -82.516806,
    "latitude": 42.192639
  },
  {
    "id": 15294,
    "name": "Big Creek 16000100102 (16000100102)",
    "longitude": -83.076659,
    "latitude": 42.063883
  },
  {
    "id": 15144,
    "name": "Big Creek 16000100202 (16000100202)",
    "longitude": -83.082553,
    "latitude": 42.087351
  },
  {
    "id": 13696,
    "name": "Big Creek 16012400102 (16012400102)",
    "longitude": -80.454064,
    "latitude": 42.601538
  },
  {
    "id": 13485,
    "name": "Big Creek 16012400202 (16012400202)",
    "longitude": -80.503532,
    "latitude": 42.853899
  },
  {
    "id": 15012,
    "name": "Big Creek 16012400302 (16012400302)",
    "longitude": -80.485621,
    "latitude": 42.594507
  },
  {
    "id": 13720,
    "name": "Big Creek 16012400402 (16012400402)",
    "longitude": -80.51766,
    "latitude": 42.854118
  },
  {
    "id": 14073,
    "name": "Big Creek 16012400902 (16012400902)",
    "longitude": -80.508447,
    "latitude": 42.850679
  },
  {
    "id": 13760,
    "name": "Big Creek 16012401002 (16012401002)",
    "longitude": -80.514897,
    "latitude": 42.610268
  },
  {
    "id": 13921,
    "name": "Big Creek 16012401102 (16012401102)",
    "longitude": -80.538425,
    "latitude": 42.685827
  },
  {
    "id": 15068,
    "name": "Big Creek 16012401202 (16012401202)",
    "longitude": -80.444858,
    "latitude": 42.987259
  },
  {
    "id": 13467,
    "name": "Big Creek 16018412802 (16018412802)",
    "longitude": -80.030486,
    "latitude": 43.096047
  },
  {
    "id": 196077,
    "name": "BIG CREEK STATION (04001303302)",
    "longitude": -82.516806,
    "latitude": 42.192639
  },
  {
    "id": 195925,
    "name": "BIG CREEK STATION (16000100102)",
    "longitude": -83.076659,
    "latitude": 42.063883
  },
  {
    "id": 197157,
    "name": "BIG CREEK STATION (16000100202)",
    "longitude": -83.082553,
    "latitude": 42.087351
  },
  {
    "id": 197109,
    "name": "BIG CREEK STATION (16012400102)",
    "longitude": -80.454064,
    "latitude": 42.601538
  },
  {
    "id": 196511,
    "name": "BIG CREEK STATION (16012400202)",
    "longitude": -80.503532,
    "latitude": 42.853899
  },
  {
    "id": 197126,
    "name": "BIG CREEK STATION (16012400302)",
    "longitude": -80.485621,
    "latitude": 42.594507
  },
  {
    "id": 195506,
    "name": "BIG CREEK STATION (16012400402)",
    "longitude": -80.51766,
    "latitude": 42.854118
  },
  {
    "id": 196343,
    "name": "BIG CREEK STATION (16012400902)",
    "longitude": -80.508447,
    "latitude": 42.850679
  },
  {
    "id": 197245,
    "name": "BIG CREEK STATION (16012401002)",
    "longitude": -80.514897,
    "latitude": 42.610268
  },
  {
    "id": 195551,
    "name": "BIG CREEK STATION (16012401102)",
    "longitude": -80.538425,
    "latitude": 42.685827
  },
  {
    "id": 196708,
    "name": "BIG CREEK STATION (16012401202)",
    "longitude": -80.444858,
    "latitude": 42.987259
  },
  {
    "id": 196307,
    "name": "BIG CREEK STATION (16018412802)",
    "longitude": -80.030486,
    "latitude": 43.096047
  },
  {
    "id": 14741,
    "name": "Bighead River 03003000102 (03003000102)",
    "longitude": -80.589096,
    "latitude": 44.607309
  },
  {
    "id": 13303,
    "name": "Bighead River 03003000202 (03003000202)",
    "longitude": -80.648504,
    "latitude": 44.569878
  },
  {
    "id": 195586,
    "name": "BIGHEAD RIVER STATION (03003000102)",
    "longitude": -80.589096,
    "latitude": 44.607309
  },
  {
    "id": 196205,
    "name": "BIGHEAD RIVER STATION (03003000202)",
    "longitude": -80.648504,
    "latitude": 44.569878
  },
  {
    "id": 14241,
    "name": "Big Jocko River 18629001002 (18629001002)",
    "longitude": -79.169723,
    "latitude": 46.61229
  },
  {
    "id": 197187,
    "name": "BIG JOCKO RIVER STATION (18629001002)",
    "longitude": -79.169723,
    "latitude": 46.61229
  },
  {
    "id": 15154,
    "name": "Big Otter Creek 16010900102 (16010900102)",
    "longitude": -80.807029,
    "latitude": 42.648959
  },
  {
    "id": 15224,
    "name": "Big Otter Creek 16010900202 (16010900202)",
    "longitude": -80.792809,
    "latitude": 42.686718
  },
  {
    "id": 14755,
    "name": "Big Otter Creek 16010900302 (16010900302)",
    "longitude": -80.685267,
    "latitude": 42.87544
  },
  {
    "id": 13141,
    "name": "Big Otter Creek 16010900402 (16010900402)",
    "longitude": -80.78117,
    "latitude": 42.797401
  },
  {
    "id": 14177,
    "name": "Big Otter Creek 16010900502 (16010900502)",
    "longitude": -80.79222,
    "latitude": 42.677259
  },
  {
    "id": 13920,
    "name": "Big Otter Creek 16010900702 (16010900702)",
    "longitude": -80.542526,
    "latitude": 42.965925
  },
  {
    "id": 13722,
    "name": "Big Otter Creek 16010900802 (16010900802)",
    "longitude": -80.840161,
    "latitude": 42.710949
  },
  {
    "id": 195425,
    "name": "BIG OTTER CREEK STATION (16010900102)",
    "longitude": -80.807029,
    "latitude": 42.648959
  },
  {
    "id": 196507,
    "name": "BIG OTTER CREEK STATION (16010900202)",
    "longitude": -80.792809,
    "latitude": 42.686718
  },
  {
    "id": 197359,
    "name": "BIG OTTER CREEK STATION (16010900302)",
    "longitude": -80.685267,
    "latitude": 42.87544
  },
  {
    "id": 195356,
    "name": "BIG OTTER CREEK STATION (16010900402)",
    "longitude": -80.78117,
    "latitude": 42.797401
  },
  {
    "id": 197213,
    "name": "BIG OTTER CREEK STATION (16010900502)",
    "longitude": -80.79222,
    "latitude": 42.677259
  },
  {
    "id": 195829,
    "name": "BIG OTTER CREEK STATION (16010900702)",
    "longitude": -80.542526,
    "latitude": 42.965925
  },
  {
    "id": 195489,
    "name": "BIG OTTER CREEK STATION (16010900802)",
    "longitude": -80.840161,
    "latitude": 42.710949
  },
  {
    "id": 14052,
    "name": "Big Rideau Lake 18003302102 (18003302102)",
    "longitude": -76.186212,
    "latitude": 44.702506
  },
  {
    "id": 195613,
    "name": "BIG RIDEAU LAKE STATION (18003302102)",
    "longitude": -76.186212,
    "latitude": 44.702506
  },
  {
    "id": 195504,
    "name": "BIG SWAMP DRAIN STATION (04001305202)",
    "longitude": -81.05509,
    "latitude": 42.975745
  },
  {
    "id": 14335,
    "name": "Big Trout Lake 19000800702 (19000800702)",
    "longitude": -89.863927,
    "latitude": 53.825058
  },
  {
    "id": 195516,
    "name": "BIG TROUT LAKE STATION (19000800702)",
    "longitude": -89.863927,
    "latitude": 53.825058
  },
  {
    "id": 13304,
    "name": "Black Ash Creek 03004900102 (03004900102)",
    "longitude": -80.235804,
    "latitude": 44.506187
  },
  {
    "id": 13931,
    "name": "Black Ash Creek East 03004900302 (03004900302)",
    "longitude": -80.238341,
    "latitude": 44.490878
  },
  {
    "id": 195698,
    "name": "BLACK ASH CREEK STATION (03004900102)",
    "longitude": -80.235804,
    "latitude": 44.506187
  },
  {
    "id": 196710,
    "name": "BLACK ASH CREEK STATION (03004900202)",
    "longitude": -80.242357,
    "latitude": 44.490039
  },
  {
    "id": 195374,
    "name": "BLACK ASH CREEK STATION (03004900302)",
    "longitude": -80.238341,
    "latitude": 44.490878
  },
  {
    "id": 13881,
    "name": "Black Ash Creek West 03004900202 (03004900202)",
    "longitude": -80.242357,
    "latitude": 44.490039
  },
  {
    "id": 14964,
    "name": "Blackbird Creek 01007400202 (01007400202)",
    "longitude": -87.03504,
    "latitude": 48.848482
  },
  {
    "id": 196655,
    "name": "BLACKBIRD CREEK STATION (01007400202)",
    "longitude": -87.03504,
    "latitude": 48.848482
  },
  {
    "id": 14477,
    "name": "Black Creek 03005703602 (03005703602)",
    "longitude": -79.820619,
    "latitude": 44.418815
  },
  {
    "id": 14220,
    "name": "Black Creek 04001309202 (04001309202)",
    "longitude": -81.184453,
    "latitude": 43.375171
  },
  {
    "id": 13378,
    "name": "Black Creek 04002700902 (04002700902)",
    "longitude": -82.171941,
    "latitude": 42.786949
  },
  {
    "id": 13508,
    "name": "Black Creek 05000600102 (05000600102)",
    "longitude": -79.023543,
    "latitude": 42.980873
  },
  {
    "id": 13926,
    "name": "Black Creek 05000600202 (05000600202)",
    "longitude": -79.021964,
    "latitude": 42.963351
  },
  {
    "id": 14837,
    "name": "Black Creek 06007600502 (06007600502)",
    "longitude": -80.022093,
    "latitude": 43.627594
  },
  {
    "id": 13648,
    "name": "BLACK CREEK 06007600702 (06007600702)",
    "longitude": -80.060718,
    "latitude": 43.767241
  },
  {
    "id": 15066,
    "name": "Black Creek 06007600802 (06007600802)",
    "longitude": -80.010398,
    "latitude": 43.629233
  },
  {
    "id": 13732,
    "name": "Black Creek 06008301202 (06008301202)",
    "longitude": -79.505323,
    "latitude": 43.674845
  },
  {
    "id": 13287,
    "name": "Black Creek 06011200602 (06011200602)",
    "longitude": -78.788705,
    "latitude": 43.911565
  },
  {
    "id": 13568,
    "name": "Black Creek 06017200102 (06017200102)",
    "longitude": -77.090415,
    "latitude": 43.935691
  },
  {
    "id": 14149,
    "name": "Black Creek 08012303702 (08012303702)",
    "longitude": -80.744105,
    "latitude": 44.283483
  },
  {
    "id": 196339,
    "name": "BLACK CREEK STATION (03005703602)",
    "longitude": -79.820619,
    "latitude": 44.418815
  },
  {
    "id": 195552,
    "name": "BLACK CREEK STATION (04001309202)",
    "longitude": -81.184453,
    "latitude": 43.375171
  },
  {
    "id": 195577,
    "name": "BLACK CREEK STATION (04002700902)",
    "longitude": -82.171941,
    "latitude": 42.786949
  },
  {
    "id": 196899,
    "name": "BLACK CREEK STATION (05000600102)",
    "longitude": -79.023543,
    "latitude": 42.980873
  },
  {
    "id": 195362,
    "name": "BLACK CREEK STATION (05000600202)",
    "longitude": -79.021964,
    "latitude": 42.963351
  },
  {
    "id": 196825,
    "name": "BLACK CREEK STATION (06007600502)",
    "longitude": -80.022093,
    "latitude": 43.627594
  },
  {
    "id": 197168,
    "name": "BLACK CREEK STATION (06007600702)",
    "longitude": -80.060722,
    "latitude": 43.767249
  },
  {
    "id": 195560,
    "name": "BLACK CREEK STATION (06007600802)",
    "longitude": -80.010398,
    "latitude": 43.629233
  },
  {
    "id": 195840,
    "name": "BLACK CREEK STATION (06008301202)",
    "longitude": -79.505323,
    "latitude": 43.674845
  },
  {
    "id": 196652,
    "name": "BLACK CREEK STATION (06011200602)",
    "longitude": -78.788705,
    "latitude": 43.911565
  },
  {
    "id": 14444,
    "name": "Black River 01006000202 (01006000202)",
    "longitude": -86.212624,
    "latitude": 48.687906
  },
  {
    "id": 13693,
    "name": "Black River 01006000302 (01006000302)",
    "longitude": -85.879653,
    "latitude": 48.877573
  },
  {
    "id": 13924,
    "name": "Black River 01006000402 (01006000402)",
    "longitude": -85.746463,
    "latitude": 49.132287
  },
  {
    "id": 14302,
    "name": "Black River 01006000602 (01006000602)",
    "longitude": -85.741932,
    "latitude": 49.140091
  },
  {
    "id": 14261,
    "name": "Black River 03007700802 (03007700802)",
    "longitude": -79.346141,
    "latitude": 44.322308
  },
  {
    "id": 14776,
    "name": "Black River 03007701902 (03007701902)",
    "longitude": -79.344142,
    "latitude": 44.260864
  },
  {
    "id": 14918,
    "name": "Black River 03007702002 (03007702002)",
    "longitude": -79.321521,
    "latitude": 44.207795
  },
  {
    "id": 13687,
    "name": "Black River 03007703102 (03007703102)",
    "longitude": -79.281472,
    "latitude": 44.714055
  },
  {
    "id": 14602,
    "name": "Black River 03007703802 (03007703802)",
    "longitude": -79.360426,
    "latitude": 44.304737
  },
  {
    "id": 14797,
    "name": "Black River 16018404902 (16018404902)",
    "longitude": -80.56461,
    "latitude": 43.273287
  },
  {
    "id": 15062,
    "name": "Black River 17002601002 (17002601002)",
    "longitude": -77.369428,
    "latitude": 44.539576
  },
  {
    "id": 13671,
    "name": "Black River 19006400702 (19006400702)",
    "longitude": -80.464019,
    "latitude": 48.539374
  },
  {
    "id": 196787,
    "name": "BLACK RIVER STATION (01006000202)",
    "longitude": -86.212624,
    "latitude": 48.687906
  },
  {
    "id": 196070,
    "name": "BLACK RIVER STATION (01006000302)",
    "longitude": -85.879653,
    "latitude": 48.877573
  },
  {
    "id": 195851,
    "name": "BLACK RIVER STATION (01006000402)",
    "longitude": -85.746463,
    "latitude": 49.132287
  },
  {
    "id": 195740,
    "name": "BLACK RIVER STATION (01006000602)",
    "longitude": -85.741932,
    "latitude": 49.140091
  },
  {
    "id": 195937,
    "name": "BLACK RIVER STATION (03007700802)",
    "longitude": -79.346141,
    "latitude": 44.322308
  },
  {
    "id": 195802,
    "name": "BLACK RIVER STATION (03007701902)",
    "longitude": -79.344142,
    "latitude": 44.260864
  },
  {
    "id": 195565,
    "name": "BLACK RIVER STATION (03007702002)",
    "longitude": -79.321521,
    "latitude": 44.207795
  },
  {
    "id": 195903,
    "name": "BLACK RIVER STATION (03007703102)",
    "longitude": -79.281472,
    "latitude": 44.714055
  },
  {
    "id": 197308,
    "name": "BLACK RIVER STATION (03007703802)",
    "longitude": -79.360426,
    "latitude": 44.304737
  },
  {
    "id": 196769,
    "name": "BLACK RIVER STATION (06017200102)",
    "longitude": -77.090415,
    "latitude": 43.935691
  },
  {
    "id": 197270,
    "name": "BLACK RIVER STATION (16018404902)",
    "longitude": -80.56461,
    "latitude": 43.273287
  },
  {
    "id": 196109,
    "name": "BLACK RIVER STATION (17002601002)",
    "longitude": -77.369428,
    "latitude": 44.539576
  },
  {
    "id": 196804,
    "name": "BLACK RIVER STATION (17002602502)",
    "longitude": -77.370333,
    "latitude": 44.53664
  },
  {
    "id": 196913,
    "name": "BLACK RIVER STATION (19006400702)",
    "longitude": -80.464019,
    "latitude": 48.539374
  },
  {
    "id": 196004,
    "name": "BLACKS CREEK STATION (08012303702)",
    "longitude": -80.744105,
    "latitude": 44.283483
  },
  {
    "id": 14717,
    "name": "Blackstock Creek 17002113702 (17002113702)",
    "longitude": -78.828878,
    "latitude": 44.131876
  },
  {
    "id": 196269,
    "name": "BLACKSTOCK CREEK STATION (17002113702)",
    "longitude": -78.828878,
    "latitude": 44.131876
  },
  {
    "id": 13253,
    "name": "Black Sturgeon River 01009200102 (01009200102)",
    "longitude": -88.378172,
    "latitude": 48.904081
  },
  {
    "id": 196592,
    "name": "BLACK STURGEON RIVER STATION (01009200102)",
    "longitude": -88.378172,
    "latitude": 48.904081
  },
  {
    "id": 14526,
    "name": "Blanche River 18224001002 (18224001002)",
    "longitude": -75.21541,
    "latitude": 45.59945
  },
  {
    "id": 14178,
    "name": "Blanche River 18771000402 (18771000402)",
    "longitude": -80.018027,
    "latitude": 47.994673
  },
  {
    "id": 14480,
    "name": "Blanche River 18771000502 (18771000502)",
    "longitude": -80.103609,
    "latitude": 48.108223
  },
  {
    "id": 15065,
    "name": "Blanche River 18771000820 (18771000820)",
    "longitude": -80.103638,
    "latitude": 48.10835
  },
  {
    "id": 14947,
    "name": "Blanche River 18771000902 (18771000902)",
    "longitude": -80.069454,
    "latitude": 48.029754
  },
  {
    "id": 14781,
    "name": "Blanche River 18771001302 (18771001302)",
    "longitude": -79.541857,
    "latitude": 47.609846
  },
  {
    "id": 195357,
    "name": "BLANCHE RIVER STATION (18224001002)",
    "longitude": -75.21541,
    "latitude": 45.59945
  },
  {
    "id": 197011,
    "name": "BLANCHE RIVER STATION (18771000402)",
    "longitude": -80.018027,
    "latitude": 47.994673
  },
  {
    "id": 195316,
    "name": "BLANCHE RIVER STATION (18771000502)",
    "longitude": -80.103609,
    "latitude": 48.108223
  },
  {
    "id": 197005,
    "name": "BLANCHE RIVER STATION (18771000820)",
    "longitude": -80.103638,
    "latitude": 48.10835
  },
  {
    "id": 196488,
    "name": "BLANCHE RIVER STATION (18771000902)",
    "longitude": -80.069454,
    "latitude": 48.029754
  },
  {
    "id": 197236,
    "name": "BLANCHE RIVER STATION (18771001302)",
    "longitude": -79.541857,
    "latitude": 47.609846
  },
  {
    "id": 14292,
    "name": "Blind River 14001400102 (14001400102)",
    "longitude": -82.956736,
    "latitude": 46.183076
  },
  {
    "id": 14986,
    "name": "Blind River 14001400202 (14001400202)",
    "longitude": -82.954323,
    "latitude": 46.187376
  },
  {
    "id": 14355,
    "name": "Blind River 14001400302 (14001400302)",
    "longitude": -82.955807,
    "latitude": 46.185761
  },
  {
    "id": 195488,
    "name": "BLIND RIVER STATION (14001400102)",
    "longitude": -82.956736,
    "latitude": 46.183076
  },
  {
    "id": 197111,
    "name": "BLIND RIVER STATION (14001400202)",
    "longitude": -82.954323,
    "latitude": 46.187376
  },
  {
    "id": 196975,
    "name": "BLIND RIVER STATION (14001400302)",
    "longitude": -82.955807,
    "latitude": 46.185761
  },
  {
    "id": 13587,
    "name": "Bloomfield Creek 06016300102 (06016300102)",
    "longitude": -77.246474,
    "latitude": 43.9733
  },
  {
    "id": 195870,
    "name": "BLOOMFIELD CREEK STATION (06016300102)",
    "longitude": -77.246474,
    "latitude": 43.9733
  },
  {
    "id": 14691,
    "name": "Blue Jay Creek 08015800102 (08015800102)",
    "longitude": -81.986462,
    "latitude": 45.651565
  },
  {
    "id": 13885,
    "name": "Blue Jay Creek 08015800202 (08015800202)",
    "longitude": -81.987233,
    "latitude": 45.665437
  },
  {
    "id": 197364,
    "name": "BLUE JAY CREEK STATION (08015800102)",
    "longitude": -81.986462,
    "latitude": 45.651565
  },
  {
    "id": 197172,
    "name": "BLUE JAY CREEK STATION (08015800202)",
    "longitude": -81.987233,
    "latitude": 45.665437
  },
  {
    "id": 14383,
    "name": "Blue Springs Creek 16018402302 (16018402302)",
    "longitude": -80.109137,
    "latitude": 43.57606
  },
  {
    "id": 196390,
    "name": "BLUE SPRINGS CREEK STATION (16018402302)",
    "longitude": -80.109137,
    "latitude": 43.57606
  },
  {
    "id": 15079,
    "name": "Blyth Brook 08005600202 (08005600202)",
    "longitude": -81.445917,
    "latitude": 43.74887
  },
  {
    "id": 196076,
    "name": "BLYTH BROOK STATION (08005600202)",
    "longitude": -81.445917,
    "latitude": 43.74887
  },
  {
    "id": 14680,
    "name": "Bobs Lake 18003302501 (18003302501)",
    "longitude": -76.57575,
    "latitude": 44.68687
  },
  {
    "id": 195761,
    "name": "BOBS LAKE STATION (18003302501)",
    "longitude": -76.57575,
    "latitude": 44.68687
  },
  {
    "id": 13398,
    "name": "Bogart Creek 03007702402 (03007702402)",
    "longitude": -79.377608,
    "latitude": 44.039361
  },
  {
    "id": 196371,
    "name": "BOGART CREEK STATION (03007702402)",
    "longitude": -79.377608,
    "latitude": 44.039361
  },
  {
    "id": 14147,
    "name": "Bonnechere River 18369001002 (18369001002)",
    "longitude": -76.556703,
    "latitude": 45.514431
  },
  {
    "id": 196117,
    "name": "BONNECHERE RIVER STATION (18369001002)",
    "longitude": -76.556703,
    "latitude": 45.514431
  },
  {
    "id": 13386,
    "name": "Boomer Creek 16018412702 (16018412702)",
    "longitude": -80.634965,
    "latitude": 43.55904
  },
  {
    "id": 196695,
    "name": "BOOMER CREEK STATION (16018412702)",
    "longitude": -80.634965,
    "latitude": 43.55904
  },
  {
    "id": 14099,
    "name": "Boston Creek 16018409502 (16018409502)",
    "longitude": -79.948934,
    "latitude": 43.021925
  },
  {
    "id": 13566,
    "name": "Boston Creek 16018411602 (16018411602)",
    "longitude": -79.999751,
    "latitude": 43.019852
  },
  {
    "id": 196418,
    "name": "BOSTON CREEK STATION (16018409502)",
    "longitude": -79.948934,
    "latitude": 43.021925
  },
  {
    "id": 196970,
    "name": "BOSTON CREEK STATION (16018411602)",
    "longitude": -79.999751,
    "latitude": 43.019852
  },
  {
    "id": 15198,
    "name": "Bow Lake 17002110401 (17002110401)",
    "longitude": -77.939193,
    "latitude": 45.011243
  },
  {
    "id": 14725,
    "name": "Bow Lake 17002110501 (17002110501)",
    "longitude": -77.926533,
    "latitude": 45.016961
  },
  {
    "id": 15213,
    "name": "Bow Lake Outlet 17002106202 (17002106202)",
    "longitude": -77.935523,
    "latitude": 45.003881
  },
  {
    "id": 197156,
    "name": "BOW LAKE OUTLET STATION (17002106202)",
    "longitude": -77.935523,
    "latitude": 45.003881
  },
  {
    "id": 195406,
    "name": "BOW LAKE STATION (17002110401)",
    "longitude": -77.939193,
    "latitude": 45.011243
  },
  {
    "id": 196494,
    "name": "BOW LAKE STATION (17002110501)",
    "longitude": -77.926533,
    "latitude": 45.016961
  },
  {
    "id": 14421,
    "name": "Bowmanville Creek 06011600102 (06011600102)",
    "longitude": -78.675021,
    "latitude": 43.894292
  },
  {
    "id": 13419,
    "name": "Bowmanville Creek 06011600502 (06011600502)",
    "longitude": -78.747495,
    "latitude": 43.969821
  },
  {
    "id": 13900,
    "name": "Bowmanville Creek 06011600602 (06011600602)",
    "longitude": -78.738045,
    "latitude": 44.042343
  },
  {
    "id": 196072,
    "name": "BOWMANVILLE CREEK STATION (06011600102)",
    "longitude": -78.675021,
    "latitude": 43.894292
  },
  {
    "id": 197054,
    "name": "BOWMANVILLE CREEK STATION (06011600502)",
    "longitude": -78.747495,
    "latitude": 43.969821
  },
  {
    "id": 196466,
    "name": "BOWMANVILLE CREEK STATION (06011600602)",
    "longitude": -78.738045,
    "latitude": 44.042343
  },
  {
    "id": 13833,
    "name": "Boyle Drain 08005602002 (08005602002)",
    "longitude": -81.092161,
    "latitude": 43.692982
  },
  {
    "id": 14820,
    "name": "Boyle Drain 08005602402 (08005602402)",
    "longitude": -81.050539,
    "latitude": 43.627475
  },
  {
    "id": 13282,
    "name": "Boyle Drain Ditch 08005601002 (08005601002)",
    "longitude": -80.942574,
    "latitude": 43.573044
  },
  {
    "id": 195553,
    "name": "BOYLE DRAIN DITCH STATION (08005601002)",
    "longitude": -80.942574,
    "latitude": 43.573044
  },
  {
    "id": 196995,
    "name": "BOYLE DRAIN STATION (08005601202)",
    "longitude": -81.050825,
    "latitude": 43.626134
  },
  {
    "id": 196044,
    "name": "BOYLE DRAIN STATION (08005602002)",
    "longitude": -81.092161,
    "latitude": 43.692982
  },
  {
    "id": 195338,
    "name": "BOYLE DRAIN STATION (08005602402)",
    "longitude": -81.050539,
    "latitude": 43.627475
  },
  {
    "id": 15084,
    "name": "Boyne River 03003600502 (03003600502)",
    "longitude": -80.545858,
    "latitude": 44.279587
  },
  {
    "id": 13547,
    "name": "Boyne River 03005700102 (03005700102)",
    "longitude": -79.844378,
    "latitude": 44.160804
  },
  {
    "id": 13701,
    "name": "Boyne River 03005700202 (03005700202)",
    "longitude": -79.879187,
    "latitude": 44.153414
  },
  {
    "id": 15186,
    "name": "Boyne River 03005700302 (03005700302)",
    "longitude": -79.89684,
    "latitude": 44.152722
  },
  {
    "id": 14024,
    "name": "Boyne River 03005700702 (03005700702)",
    "longitude": -79.829486,
    "latitude": 44.163061
  },
  {
    "id": 14275,
    "name": "Boyne River 03005701102 (03005701102)",
    "longitude": -80.18898,
    "latitude": 44.085092
  },
  {
    "id": 14319,
    "name": "Boyne River 03005701202 (03005701202)",
    "longitude": -80.176844,
    "latitude": 44.107344
  },
  {
    "id": 14698,
    "name": "Boyne River 03005701602 (03005701602)",
    "longitude": -80.194786,
    "latitude": 44.080272
  },
  {
    "id": 14114,
    "name": "Boyne River 03005701902 (03005701902)",
    "longitude": -80.002253,
    "latitude": 44.164264
  },
  {
    "id": 14987,
    "name": "Boyne River 03009600202 (03009600202)",
    "longitude": -79.952999,
    "latitude": 45.302958
  },
  {
    "id": 196823,
    "name": "BOYNE RIVER STATION (03003600502)",
    "longitude": -80.545858,
    "latitude": 44.279587
  },
  {
    "id": 196684,
    "name": "BOYNE RIVER STATION (03005700102)",
    "longitude": -79.844378,
    "latitude": 44.160804
  },
  {
    "id": 196282,
    "name": "BOYNE RIVER STATION (03005700202)",
    "longitude": -79.879187,
    "latitude": 44.153414
  },
  {
    "id": 195909,
    "name": "BOYNE RIVER STATION (03005700302)",
    "longitude": -79.89684,
    "latitude": 44.152722
  },
  {
    "id": 196910,
    "name": "BOYNE RIVER STATION (03005700702)",
    "longitude": -79.829486,
    "latitude": 44.163061
  },
  {
    "id": 197165,
    "name": "BOYNE RIVER STATION (03005701102)",
    "longitude": -80.18898,
    "latitude": 44.085092
  },
  {
    "id": 195535,
    "name": "BOYNE RIVER STATION (03005701202)",
    "longitude": -80.176844,
    "latitude": 44.107344
  },
  {
    "id": 195954,
    "name": "BOYNE RIVER STATION (03005701602)",
    "longitude": -80.194786,
    "latitude": 44.080272
  },
  {
    "id": 196499,
    "name": "BOYNE RIVER STATION (03005701902)",
    "longitude": -80.002253,
    "latitude": 44.164264
  },
  {
    "id": 196413,
    "name": "BOYNE RIVER STATION (03009600202)",
    "longitude": -79.952999,
    "latitude": 45.302958
  },
  {
    "id": 195361,
    "name": "BOYNE RIVER TRIB STATION (03005701502)",
    "longitude": -79.914133,
    "latitude": 44.152826
  },
  {
    "id": 14495,
    "name": "Boyne River Tributary 03005701502 (03005701502)",
    "longitude": -79.914133,
    "latitude": 44.152826
  },
  {
    "id": 14542,
    "name": "Brantford Water Works Canal 16018409702 (16018409702)",
    "longitude": -80.296533,
    "latitude": 43.13988
  },
  {
    "id": 195776,
    "name": "BRANTFORD WATER WORKS CANAL STATION (16018409702)",
    "longitude": -80.296533,
    "latitude": 43.13988
  },
  {
    "id": 15015,
    "name": "Brennans Creek 18369020002 (18369020002)",
    "longitude": -77.415796,
    "latitude": 45.554656
  },
  {
    "id": 196762,
    "name": "BRENNANS CREEK STATION (18369020002)",
    "longitude": -77.415796,
    "latitude": 45.554656
  },
  {
    "id": 13408,
    "name": "Brewery Creek 18272001002 (18272001002)",
    "longitude": -75.71219,
    "latitude": 45.44149
  },
  {
    "id": 13192,
    "name": "Brewery Creek 18272010002 (18272010002)",
    "longitude": -75.72475,
    "latitude": 45.42408
  },
  {
    "id": 195815,
    "name": "BREWERY CREEK STATION (18272001002)",
    "longitude": -75.71219,
    "latitude": 45.44149
  },
  {
    "id": 196921,
    "name": "BREWERY CREEK STATION (18272010002)",
    "longitude": -75.72475,
    "latitude": 45.42408
  },
  {
    "id": 14352,
    "name": "Bridgland River 14000300302 (14000300302)",
    "longitude": -83.562279,
    "latitude": 46.296559
  },
  {
    "id": 197322,
    "name": "BRIDGLAND RIVER STATION (14000300302)",
    "longitude": -83.562279,
    "latitude": 46.296559
  },
  {
    "id": 14904,
    "name": "Brock Creek 16006600102 (16006600102)",
    "longitude": -81.598018,
    "latitude": 42.578031
  },
  {
    "id": 197064,
    "name": "BROCK CREEK STATION (16006600102)",
    "longitude": -81.598018,
    "latitude": 42.578031
  },
  {
    "id": 14923,
    "name": "Bronte Creek 06006000102 (06006000102)",
    "longitude": -79.714124,
    "latitude": 43.392033
  },
  {
    "id": 14883,
    "name": "Bronte Creek 06006000202 (06006000202)",
    "longitude": -79.831952,
    "latitude": 43.425015
  },
  {
    "id": 13507,
    "name": "Bronte Creek 06006000502 (06006000502)",
    "longitude": -79.960717,
    "latitude": 43.397786
  },
  {
    "id": 14300,
    "name": "Bronte Creek 06006000702 (06006000702)",
    "longitude": -79.722795,
    "latitude": 43.395594
  },
  {
    "id": 13999,
    "name": "Bronte Creek 06006001402 (06006001402)",
    "longitude": -80.010189,
    "latitude": 43.380117
  },
  {
    "id": 196797,
    "name": "BRONTE CREEK STATION (06006000102)",
    "longitude": -79.714124,
    "latitude": 43.392033
  },
  {
    "id": 195522,
    "name": "BRONTE CREEK STATION (06006000202)",
    "longitude": -79.831952,
    "latitude": 43.425015
  },
  {
    "id": 196782,
    "name": "BRONTE CREEK STATION (06006000502)",
    "longitude": -79.960717,
    "latitude": 43.397786
  },
  {
    "id": 196171,
    "name": "BRONTE CREEK STATION (06006000702)",
    "longitude": -79.722795,
    "latitude": 43.395594
  },
  {
    "id": 196620,
    "name": "BRONTE CREEK STATION (06006001402)",
    "longitude": -80.010189,
    "latitude": 43.380117
  },
  {
    "id": 13795,
    "name": "Brookside Creek 06013900102 (06013900102)",
    "longitude": -78.073442,
    "latitude": 43.987112
  },
  {
    "id": 14783,
    "name": "Brookside Creek 06013900202 (06013900202)",
    "longitude": -78.072853,
    "latitude": 43.981385
  },
  {
    "id": 197278,
    "name": "BROOKSIDE CREEK STATION (06013900102)",
    "longitude": -78.073442,
    "latitude": 43.987112
  },
  {
    "id": 197143,
    "name": "BROOKSIDE CREEK STATION (06013900202)",
    "longitude": -78.072853,
    "latitude": 43.981385
  },
  {
    "id": 13578,
    "name": "Brougham Creek 06010402802 (06010402802)",
    "longitude": -79.072918,
    "latitude": 43.907756
  },
  {
    "id": 14468,
    "name": "Brougham Creek 06010404802 (06010404802)",
    "longitude": -79.107949,
    "latitude": 43.918413
  },
  {
    "id": 14598,
    "name": "Brougham Creek 06010405002 (06010405002)",
    "longitude": -79.105502,
    "latitude": 43.916349
  },
  {
    "id": 13334,
    "name": "Brougham Creek 06010405102 (06010405102)",
    "longitude": -79.083029,
    "latitude": 43.914488
  },
  {
    "id": 13308,
    "name": "Brougham Creek (East Branch) 06010410202 (06010410202)",
    "longitude": -79.080534,
    "latitude": 43.911728
  },
  {
    "id": 195790,
    "name": "BROUGHAM CREEK STATION (06010402802)",
    "longitude": -79.072918,
    "latitude": 43.907756
  },
  {
    "id": 195558,
    "name": "BROUGHAM CREEK STATION (06010404802)",
    "longitude": -79.107949,
    "latitude": 43.918413
  },
  {
    "id": 196711,
    "name": "BROUGHAM CREEK STATION (06010405002)",
    "longitude": -79.105502,
    "latitude": 43.916349
  },
  {
    "id": 195857,
    "name": "BROUGHAM CREEK STATION (06010405102)",
    "longitude": -79.083029,
    "latitude": 43.914488
  },
  {
    "id": 196434,
    "name": "BROUGHAM CREEK STATION (06010410102)",
    "longitude": -79.081015,
    "latitude": 43.911845
  },
  {
    "id": 196900,
    "name": "BROUGHAM CREEK STATION (06010410202)",
    "longitude": -79.080534,
    "latitude": 43.911728
  },
  {
    "id": 14305,
    "name": "Brougham Creek Tributary 06010405202 (06010405202)",
    "longitude": -79.080683,
    "latitude": 43.925144
  },
  {
    "id": 15003,
    "name": "Brougham Creek Tributary 06010408302 (06010408302)",
    "longitude": -79.096015,
    "latitude": 43.950372
  },
  {
    "id": 14255,
    "name": "Brougham Creek Tributary 06010408702 (06010408702)",
    "longitude": -79.080683,
    "latitude": 43.925144
  },
  {
    "id": 13148,
    "name": "Brougham Creek Tributary 06010408802 (06010408802)",
    "longitude": -79.092471,
    "latitude": 43.922223
  },
  {
    "id": 197266,
    "name": "BROUGHAM CREEK TRIBUTARY STATION (06010408302)",
    "longitude": -79.096015,
    "latitude": 43.950372
  },
  {
    "id": 195471,
    "name": "BROUGHAM CREEK TRIBUTARY STATION (06010408702)",
    "longitude": -79.080683,
    "latitude": 43.925144
  },
  {
    "id": 195321,
    "name": "BROUGHAM CREEK TRIBUTARY STATION (06010408802)",
    "longitude": -79.092471,
    "latitude": 43.922223
  },
  {
    "id": 13782,
    "name": "Brougham Creek (West Branch) 06010410102 (06010410102)",
    "longitude": -79.081015,
    "latitude": 43.911845
  },
  {
    "id": 196828,
    "name": "BROUGHAM CR.TRIB. STATION (06010405202)",
    "longitude": -79.080683,
    "latitude": 43.925144
  },
  {
    "id": 15053,
    "name": "Brown Creek 04002701102 (04002701102)",
    "longitude": -81.867782,
    "latitude": 42.93123
  },
  {
    "id": 196737,
    "name": "BROWN CREEK STATION (04002701102)",
    "longitude": -81.867782,
    "latitude": 42.93123
  },
  {
    "id": 14882,
    "name": "Bruce Creek 06009701802 (06009701802)",
    "longitude": -79.32307,
    "latitude": 43.896733
  },
  {
    "id": 197118,
    "name": "BRUCE CREEK STATION (06009701802)",
    "longitude": -79.32307,
    "latitude": 43.896733
  },
  {
    "id": 13413,
    "name": "Buckhorn Lake Outlet 17002101802 (17002101802)",
    "longitude": -78.344586,
    "latitude": 44.554679
  },
  {
    "id": 196579,
    "name": "BUCKHORN LAKE OUTLET STATION (17002101802)",
    "longitude": -78.344586,
    "latitude": 44.554679
  },
  {
    "id": 14989,
    "name": "Buckles Creek 14001900709 (14001900709)",
    "longitude": -82.595979,
    "latitude": 46.373927
  },
  {
    "id": 195910,
    "name": "BUCKLES CREEK STATION (14001900709)",
    "longitude": -82.595979,
    "latitude": 46.373927
  },
  {
    "id": 14640,
    "name": "Buckshot Creek 18343000102 (18343000102)",
    "longitude": -76.965977,
    "latitude": 44.968435
  },
  {
    "id": 196246,
    "name": "BUCKSHOT CREEK STATION (18343000102)",
    "longitude": -76.965977,
    "latitude": 44.968435
  },
  {
    "id": 14009,
    "name": "Bud Lake Creek 14001901302 (14001901302)",
    "longitude": -82.650243,
    "latitude": 46.508282
  },
  {
    "id": 14887,
    "name": "Bud Lake Creek 14001901509 (14001901509)",
    "longitude": -82.66313,
    "latitude": 46.50784
  },
  {
    "id": 196313,
    "name": "BUD LAKE CREEK STATION (14001901302)",
    "longitude": -82.650243,
    "latitude": 46.508282
  },
  {
    "id": 14472,
    "name": "Bud Lake Tailings 14001901609 (14001901609)",
    "longitude": -82.66909,
    "latitude": 46.5109
  },
  {
    "id": 13943,
    "name": "Bud Lake Tailings 14001902401 (14001902401)",
    "longitude": -82.67867,
    "latitude": 46.50446
  },
  {
    "id": 14832,
    "name": "Bud Lake Tailings 14001905001 (14001905001)",
    "longitude": -82.65969,
    "latitude": 46.508911
  },
  {
    "id": 13497,
    "name": "Bud Lake Tailings 14001905101 (14001905101)",
    "longitude": -82.65403,
    "latitude": 46.50842
  },
  {
    "id": 196790,
    "name": "BUD LAKE TAILINGS STATION (14001901609)",
    "longitude": -82.66909,
    "latitude": 46.5109
  },
  {
    "id": 196858,
    "name": "BUD LAKE TAILINGS STATION (14001902401)",
    "longitude": -82.67867,
    "latitude": 46.50446
  },
  {
    "id": 195312,
    "name": "BUD LAKE TAILINGS STATION (14001905001)",
    "longitude": -82.65969,
    "latitude": 46.508911
  },
  {
    "id": 13787,
    "name": "Burlington Canal 06005200101 (06005200101)",
    "longitude": -79.795353,
    "latitude": 43.299116
  },
  {
    "id": 195523,
    "name": "BURLINGTON CANAL STATION (06005200101)",
    "longitude": -79.795353,
    "latitude": 43.299116
  },
  {
    "id": 13556,
    "name": "Burnt River 17002105502 (17002105502)",
    "longitude": -78.738015,
    "latitude": 44.598208
  },
  {
    "id": 13930,
    "name": "Burnt River 17002107502 (17002107502)",
    "longitude": -78.659365,
    "latitude": 44.740536
  },
  {
    "id": 195433,
    "name": "BURNT RIVER STATION (17002105502)",
    "longitude": -78.738015,
    "latitude": 44.598208
  },
  {
    "id": 196329,
    "name": "BURNT RIVER STATION (17002107502)",
    "longitude": -78.659365,
    "latitude": 44.740536
  },
  {
    "id": 13330,
    "name": "Burnt River Tributary 17002102802 (17002102802)",
    "longitude": -78.657816,
    "latitude": 44.808851
  },
  {
    "id": 14654,
    "name": "Burnt River Tributary 17002102902 (17002102902)",
    "longitude": -78.656223,
    "latitude": 44.807281
  },
  {
    "id": 197173,
    "name": "BURNT RIVER TRIBUTARY STATION (17002102802)",
    "longitude": -78.657816,
    "latitude": 44.808851
  },
  {
    "id": 196036,
    "name": "BURNT RIVER TRIBUTARY STATION (17002102902)",
    "longitude": -78.656223,
    "latitude": 44.807281
  },
  {
    "id": 14450,
    "name": "Butlers Creek 12003400102 (12003400102)",
    "longitude": -75.691088,
    "latitude": 44.585597
  },
  {
    "id": 196903,
    "name": "BUTLERS CREEK STATION (12003400102)",
    "longitude": -75.691088,
    "latitude": 44.585597
  },
  {
    "id": 13632,
    "name": "Callander Bay 03013300901 (03013300901)",
    "longitude": -79.371228,
    "latitude": 46.220424
  },
  {
    "id": 196605,
    "name": "CALLANDER BAY STATION (03013300901)",
    "longitude": -79.371228,
    "latitude": 46.220424
  },
  {
    "id": 13563,
    "name": "Cameron Drain 08002200302 (08002200302)",
    "longitude": -81.692325,
    "latitude": 43.16931
  },
  {
    "id": 197281,
    "name": "CAMERON DRAIN STATION (08002200302)",
    "longitude": -81.692325,
    "latitude": 43.16931
  },
  {
    "id": 14048,
    "name": "Cameron Lake Outlet 17002102302 (17002102302)",
    "longitude": -78.737525,
    "latitude": 44.535159
  },
  {
    "id": 195784,
    "name": "CAMERON LAKE OUTLET STATION (17002102302)",
    "longitude": -78.737525,
    "latitude": 44.535159
  },
  {
    "id": 14128,
    "name": "Camp Creek 08012302602 (08012302602)",
    "longitude": -80.929464,
    "latitude": 44.160957
  },
  {
    "id": 15095,
    "name": "Camp Creek 08012302702 (08012302702)",
    "longitude": -80.933235,
    "latitude": 44.169086
  },
  {
    "id": 196469,
    "name": "CAMP CREEK STATION (08012302602)",
    "longitude": -80.929464,
    "latitude": 44.160957
  },
  {
    "id": 196181,
    "name": "CAMP CREEK STATION (08012302702)",
    "longitude": -80.933235,
    "latitude": 44.169086
  },
  {
    "id": 13631,
    "name": "Camp Lake 14001903701 (14001903701)",
    "longitude": -82.441132,
    "latitude": 46.234223
  },
  {
    "id": 196536,
    "name": "CAMP LAKE STATION (14001903701)",
    "longitude": -82.441132,
    "latitude": 46.234223
  },
  {
    "id": 13745,
    "name": "Canagagigue Creek 16018401602 (16018401602)",
    "longitude": -80.534624,
    "latitude": 43.584748
  },
  {
    "id": 13531,
    "name": "Canagagigue Creek 16018405102 (16018405102)",
    "longitude": -80.560163,
    "latitude": 43.616247
  },
  {
    "id": 14256,
    "name": "Canagagigue Creek 16018405202 (16018405202)",
    "longitude": -80.580159,
    "latitude": 43.634606
  },
  {
    "id": 14338,
    "name": "Canagagigue Creek 16018405302 (16018405302)",
    "longitude": -80.589498,
    "latitude": 43.666131
  },
  {
    "id": 13498,
    "name": "Canagagigue Creek 16018407902 (16018407902)",
    "longitude": -80.509163,
    "latitude": 43.579721
  },
  {
    "id": 196116,
    "name": "CANAGAGIGUE CREEK STATION (16018401602)",
    "longitude": -80.534624,
    "latitude": 43.584748
  },
  {
    "id": 195820,
    "name": "CANAGAGIGUE CREEK STATION (16018405102)",
    "longitude": -80.560163,
    "latitude": 43.616247
  },
  {
    "id": 195480,
    "name": "CANAGAGIGUE CREEK STATION (16018405202)",
    "longitude": -80.580159,
    "latitude": 43.634606
  },
  {
    "id": 196062,
    "name": "CANAGAGIGUE CREEK STATION (16018405302)",
    "longitude": -80.589498,
    "latitude": 43.666131
  },
  {
    "id": 195463,
    "name": "CANAGAGIGUE CREEK STATION (16018407902)",
    "longitude": -80.509163,
    "latitude": 43.579721
  },
  {
    "id": 14320,
    "name": "Canal Lake Outlet 03007701202 (03007701202)",
    "longitude": -79.074999,
    "latitude": 44.533869
  },
  {
    "id": 196054,
    "name": "CANAL LAKE OUTLET STATION (03007701202)",
    "longitude": -79.074999,
    "latitude": 44.533869
  },
  {
    "id": 14821,
    "name": "Canard River 10000200102 (10000200102)",
    "longitude": -83.097553,
    "latitude": 42.168896
  },
  {
    "id": 14683,
    "name": "Canard River 10000200202 (10000200202)",
    "longitude": -83.018795,
    "latitude": 42.15906
  },
  {
    "id": 196679,
    "name": "CANARD RIVER STATION (10000200102)",
    "longitude": -83.097553,
    "latitude": 42.168896
  },
  {
    "id": 196144,
    "name": "CANARD RIVER STATION (10000200202)",
    "longitude": -83.018795,
    "latitude": 42.15906
  },
  {
    "id": 14874,
    "name": "Cannon Creek 13001100902 (13001100902)",
    "longitude": -84.343085,
    "latitude": 46.591615
  },
  {
    "id": 195905,
    "name": "CANNON CREEK STATION (13001100902)",
    "longitude": -84.343085,
    "latitude": 46.591615
  },
  {
    "id": 14393,
    "name": "Canonto Lake 18343057202 (18343057202)",
    "longitude": -76.812663,
    "latitude": 45.037408
  },
  {
    "id": 197076,
    "name": "CANONTO LAKE STATION (18343057202)",
    "longitude": -76.812663,
    "latitude": 45.037408
  },
  {
    "id": 14315,
    "name": "Carp River 18337002002 (18337002002)",
    "longitude": -76.210738,
    "latitude": 45.473804
  },
  {
    "id": 14412,
    "name": "Carp River 18337010002 (18337010002)",
    "longitude": -76.055031,
    "latitude": 45.351438
  },
  {
    "id": 14538,
    "name": "Carp River 18337010102 (18337010102)",
    "longitude": -76.055031,
    "latitude": 45.351437
  },
  {
    "id": 14703,
    "name": "Carp River 18337012002 (18337012002)",
    "longitude": -76.014589,
    "latitude": 45.340164
  },
  {
    "id": 14180,
    "name": "Carp River 18337012102 (18337012102)",
    "longitude": -76.198451,
    "latitude": 45.417509
  },
  {
    "id": 196729,
    "name": "CARP RIVER STATION (18337002002)",
    "longitude": -76.210738,
    "latitude": 45.473804
  },
  {
    "id": 195835,
    "name": "CARP RIVER STATION (18337010002)",
    "longitude": -76.055031,
    "latitude": 45.351438
  },
  {
    "id": 196796,
    "name": "CARP RIVER STATION (18337010102)",
    "longitude": -76.055031,
    "latitude": 45.351437
  },
  {
    "id": 196879,
    "name": "CARP RIVER STATION (18337012002)",
    "longitude": -76.014589,
    "latitude": 45.340164
  },
  {
    "id": 197142,
    "name": "CARP RIVER STATION (18337012102)",
    "longitude": -76.198451,
    "latitude": 45.417509
  },
  {
    "id": 15146,
    "name": "Carrick Creek 08012301302 (08012301302)",
    "longitude": -81.019042,
    "latitude": 44.113469
  },
  {
    "id": 197129,
    "name": "CARRICK CREEK STATION (08012301302)",
    "longitude": -81.019042,
    "latitude": 44.113469
  },
  {
    "id": 196561,
    "name": "CARROL CREEK STATION (16018411502)",
    "longitude": -80.518294,
    "latitude": 43.660903
  },
  {
    "id": 14647,
    "name": "Carroll Creek 16018411002 (16018411002)",
    "longitude": -80.452826,
    "latitude": 43.646257
  },
  {
    "id": 13323,
    "name": "Carroll Creek 16018411102 (16018411102)",
    "longitude": -80.472512,
    "latitude": 43.647342
  },
  {
    "id": 15171,
    "name": "Carroll Creek 16018411202 (16018411202)",
    "longitude": -80.501844,
    "latitude": 43.664445
  },
  {
    "id": 15169,
    "name": "Carroll Creek 16018411302 (16018411302)",
    "longitude": -80.521355,
    "latitude": 43.689948
  },
  {
    "id": 14440,
    "name": "Carroll Creek 16018411402 (16018411402)",
    "longitude": -80.505147,
    "latitude": 43.675542
  },
  {
    "id": 197222,
    "name": "CARROLL CREEK STATION (16018411002)",
    "longitude": -80.452826,
    "latitude": 43.646257
  },
  {
    "id": 196198,
    "name": "CARROLL CREEK STATION (16018411102)",
    "longitude": -80.472512,
    "latitude": 43.647342
  },
  {
    "id": 196067,
    "name": "CARROLL CREEK STATION (16018411202)",
    "longitude": -80.501844,
    "latitude": 43.664445
  },
  {
    "id": 195781,
    "name": "CARROLL CREEK STATION (16018411302)",
    "longitude": -80.521355,
    "latitude": 43.689948
  },
  {
    "id": 14775,
    "name": "Carruthers Creek 06010700102 (06010700102)",
    "longitude": -78.991418,
    "latitude": 43.831685
  },
  {
    "id": 15205,
    "name": "Carruthers Creek 06010700202 (06010700202)",
    "longitude": -78.998854,
    "latitude": 43.848319
  },
  {
    "id": 195682,
    "name": "CARRUTHERS CREEK STATION (06010700102)",
    "longitude": -78.991418,
    "latitude": 43.831685
  },
  {
    "id": 197099,
    "name": "CARRUTHERS CREEK STATION (06010700202)",
    "longitude": -78.998854,
    "latitude": 43.848319
  },
  {
    "id": 13796,
    "name": "Castor River 18207014002 (18207014002)",
    "longitude": -75.308439,
    "latitude": 45.265643
  },
  {
    "id": 14782,
    "name": "Castor River 18207014502 (18207014502)",
    "longitude": -75.343617,
    "latitude": 45.262426
  },
  {
    "id": 195943,
    "name": "CASTOR RIVER STATION (18207014002)",
    "longitude": -75.308439,
    "latitude": 45.265643
  },
  {
    "id": 195695,
    "name": "CASTOR RIVER STATION (18207014502)",
    "longitude": -75.343617,
    "latitude": 45.262426
  },
  {
    "id": 196334,
    "name": "CATARAQUI CREEK STATION (12000400102)",
    "longitude": -76.474467,
    "latitude": 44.234662
  },
  {
    "id": 14192,
    "name": "Cataraqui River 12000400102 (12000400102)",
    "longitude": -76.474467,
    "latitude": 44.234662
  },
  {
    "id": 14284,
    "name": "Cataraqui River 12000400183 (12000400183)",
    "longitude": -76.474467,
    "latitude": 44.234662
  },
  {
    "id": 14222,
    "name": "Cataraqui River 12000400202 (12000400202)",
    "longitude": -76.441044,
    "latitude": 44.293782
  },
  {
    "id": 13785,
    "name": "Cataraqui River 12000400302 (12000400302)",
    "longitude": -76.311647,
    "latitude": 44.413248
  },
  {
    "id": 14204,
    "name": "Cataraqui River 12000400402 (12000400402)",
    "longitude": -76.236157,
    "latitude": 44.544858
  },
  {
    "id": 13183,
    "name": "Cataraqui River 12000400502 (12000400502)",
    "longitude": -76.473221,
    "latitude": 44.249391
  },
  {
    "id": 15267,
    "name": "Cataraqui River 12000400602 (12000400602)",
    "longitude": -76.478943,
    "latitude": 44.257441
  },
  {
    "id": 196338,
    "name": "CATARAQUI RIVER STATION (12000400183)",
    "longitude": -76.474467,
    "latitude": 44.234662
  },
  {
    "id": 196099,
    "name": "CATARAQUI RIVER STATION (12000400202)",
    "longitude": -76.441044,
    "latitude": 44.293782
  },
  {
    "id": 195610,
    "name": "CATARAQUI RIVER STATION (12000400302)",
    "longitude": -76.311647,
    "latitude": 44.413248
  },
  {
    "id": 196946,
    "name": "CATARAQUI RIVER STATION (12000400402)",
    "longitude": -76.236157,
    "latitude": 44.544858
  },
  {
    "id": 196951,
    "name": "CATARAQUI RIVER STATION (12000400502)",
    "longitude": -76.473221,
    "latitude": 44.249391
  },
  {
    "id": 196767,
    "name": "CATARAQUI RIVER STATION (12000400602)",
    "longitude": -76.478943,
    "latitude": 44.257441
  },
  {
    "id": 197097,
    "name": "Cataraqui River STATION (12000400802)",
    "longitude": -76.405729,
    "latitude": 44.604312
  },
  {
    "id": 13891,
    "name": "Catchacoma Lake 17002102002 (17002102002)",
    "longitude": -78.296103,
    "latitude": 44.728344
  },
  {
    "id": 196834,
    "name": "CATCHACOMA LAKE STATION (17002102002)",
    "longitude": -78.296103,
    "latitude": 44.728344
  },
  {
    "id": 15051,
    "name": "Catfish Creek 16009700102 (16009700102)",
    "longitude": -81.015388,
    "latitude": 42.661595
  },
  {
    "id": 14415,
    "name": "Catfish Creek 16009700202 (16009700202)",
    "longitude": -81.008836,
    "latitude": 42.773973
  },
  {
    "id": 13994,
    "name": "Catfish Creek 16009700302 (16009700302)",
    "longitude": -81.045835,
    "latitude": 42.702457
  },
  {
    "id": 14359,
    "name": "Catfish Creek 16009700502 (16009700502)",
    "longitude": -81.042924,
    "latitude": 42.775551
  },
  {
    "id": 13215,
    "name": "Catfish Creek 16009700602 (16009700602)",
    "longitude": -80.931615,
    "latitude": 42.792585
  },
  {
    "id": 15085,
    "name": "Catfish Creek 16009700702 (16009700702)",
    "longitude": -80.835125,
    "latitude": 42.844791
  },
  {
    "id": 14168,
    "name": "Catfish Creek 16009700802 (16009700802)",
    "longitude": -81.037651,
    "latitude": 42.675574
  },
  {
    "id": 196437,
    "name": "CATFISH CREEK STATION (16009700102)",
    "longitude": -81.015388,
    "latitude": 42.661595
  },
  {
    "id": 196534,
    "name": "CATFISH CREEK STATION (16009700202)",
    "longitude": -81.008836,
    "latitude": 42.773973
  },
  {
    "id": 197065,
    "name": "CATFISH CREEK STATION (16009700302)",
    "longitude": -81.045835,
    "latitude": 42.702457
  },
  {
    "id": 196412,
    "name": "CATFISH CREEK STATION (16009700502)",
    "longitude": -81.042924,
    "latitude": 42.775551
  },
  {
    "id": 196882,
    "name": "CATFISH CREEK STATION (16009700602)",
    "longitude": -80.931615,
    "latitude": 42.792585
  },
  {
    "id": 196264,
    "name": "CATFISH CREEK STATION (16009700702)",
    "longitude": -80.835125,
    "latitude": 42.844791
  },
  {
    "id": 196852,
    "name": "CATFISH CREEK STATION (16009700802)",
    "longitude": -81.037651,
    "latitude": 42.675574
  },
  {
    "id": 13981,
    "name": "Catfish Creek West 16009700402 (16009700402)",
    "longitude": -81.077012,
    "latitude": 42.790654
  },
  {
    "id": 195359,
    "name": "CATFISH CREEK WEST STATION (16009700402)",
    "longitude": -81.077012,
    "latitude": 42.790654
  },
  {
    "id": 14645,
    "name": "Cat River 19005300502 (19005300502)",
    "longitude": -91.619121,
    "latitude": 51.153953
  },
  {
    "id": 197277,
    "name": "CAT RIVER STATION (19005300502)",
    "longitude": -91.619121,
    "latitude": 51.153953
  },
  {
    "id": 14871,
    "name": "Cavan Creek 17002103002 (17002103002)",
    "longitude": -78.362032,
    "latitude": 44.223932
  },
  {
    "id": 13739,
    "name": "Cavan Creek 17002114002 (17002114002)",
    "longitude": -78.396553,
    "latitude": 44.226966
  },
  {
    "id": 13339,
    "name": "Cavan Creek 17002153602 (17002153602)",
    "longitude": -78.302193,
    "latitude": 44.08189
  },
  {
    "id": 197154,
    "name": "CAVAN CREEK STATION (17002103002)",
    "longitude": -78.362032,
    "latitude": 44.223932
  },
  {
    "id": 195328,
    "name": "CAVAN CREEK STATION (17002114002)",
    "longitude": -78.396553,
    "latitude": 44.226966
  },
  {
    "id": 13841,
    "name": "Cedar Creek 01006001002 (01006001002)",
    "longitude": -85.880278,
    "latitude": 48.69649
  },
  {
    "id": 13418,
    "name": "Cedar Creek 01006001202 (01006001202)",
    "longitude": -85.910437,
    "latitude": 48.707503
  },
  {
    "id": 13669,
    "name": "Cedar Creek 04001301702 (04001301702)",
    "longitude": -80.770842,
    "latitude": 43.127419
  },
  {
    "id": 14094,
    "name": "Cedar Creek 04001307202 (04001307202)",
    "longitude": -80.734383,
    "latitude": 43.069361
  },
  {
    "id": 13523,
    "name": "Cedar Creek 16001800102 (16001800102)",
    "longitude": -82.781052,
    "latitude": 42.011697
  },
  {
    "id": 14934,
    "name": "Cedar Creek 16001800202 (16001800202)",
    "longitude": -82.831514,
    "latitude": 42.032042
  },
  {
    "id": 14422,
    "name": "Cedar Creek 16018406402 (16018406402)",
    "longitude": -80.416165,
    "latitude": 43.355765
  },
  {
    "id": 13161,
    "name": "Cedar Creek 16018406502 (16018406502)",
    "longitude": -80.417964,
    "latitude": 43.348447
  },
  {
    "id": 195334,
    "name": "CEDAR CREEK STATION (01006001002)",
    "longitude": -85.880278,
    "latitude": 48.69649
  },
  {
    "id": 197379,
    "name": "CEDAR CREEK STATION (01006001202)",
    "longitude": -85.910437,
    "latitude": 48.707503
  },
  {
    "id": 197361,
    "name": "CEDAR CREEK STATION (04001301702)",
    "longitude": -80.770842,
    "latitude": 43.127419
  },
  {
    "id": 196549,
    "name": "CEDAR CREEK STATION (16001800102)",
    "longitude": -82.781052,
    "latitude": 42.011697
  },
  {
    "id": 196134,
    "name": "CEDAR CREEK STATION (16001800202)",
    "longitude": -82.831514,
    "latitude": 42.032042
  },
  {
    "id": 195955,
    "name": "CEDAR CREEK STATION (16018406402)",
    "longitude": -80.416165,
    "latitude": 43.355765
  },
  {
    "id": 197209,
    "name": "CEDAR CREEK STATION (16018406502)",
    "longitude": -80.417964,
    "latitude": 43.348447
  },
  {
    "id": 197312,
    "name": "CEDAR SPRINGS CREEK STATION (06006001002)",
    "longitude": -79.92501,
    "latitude": 43.413018
  },
  {
    "id": 195894,
    "name": "CEDER CREEK STATION (04001307202)",
    "longitude": -80.734383,
    "latitude": 43.069361
  },
  {
    "id": 15014,
    "name": "Centre Creek 16016300102 (16016300102)",
    "longitude": -80.104648,
    "latitude": 42.790967
  },
  {
    "id": 196229,
    "name": "CENTRE CREEK STATION (16016300102)",
    "longitude": -80.104648,
    "latitude": 42.790967
  },
  {
    "id": 13927,
    "name": "Centre Lake 17002111101 (17002111101)",
    "longitude": -78.050552,
    "latitude": 45.003705
  },
  {
    "id": 13495,
    "name": "Centre Lake Outlet 17002106102 (17002106102)",
    "longitude": -78.049621,
    "latitude": 45.002108
  },
  {
    "id": 196201,
    "name": "CENTRE LAKE OUTLET STATION (17002106102)",
    "longitude": -78.049621,
    "latitude": 45.002108
  },
  {
    "id": 196763,
    "name": "CENTRE LAKE STATION (17002111101)",
    "longitude": -78.050552,
    "latitude": 45.003705
  },
  {
    "id": 14720,
    "name": "Centreville Creek 06008303002 (06008303002)",
    "longitude": -79.828759,
    "latitude": 43.928372
  },
  {
    "id": 13180,
    "name": "Centreville Creek 06008305102 (06008305102)",
    "longitude": -79.834252,
    "latitude": 43.880595
  },
  {
    "id": 15214,
    "name": "Centreville Creek 06008305202 (06008305202)",
    "longitude": -79.843517,
    "latitude": 43.889969
  },
  {
    "id": 15016,
    "name": "Centreville Creek 06008310402 (06008310402)",
    "longitude": -79.83452,
    "latitude": 43.924181
  },
  {
    "id": 195399,
    "name": "CENTREVILLE CREEK STATION (06008303002)",
    "longitude": -79.828759,
    "latitude": 43.928372
  },
  {
    "id": 195853,
    "name": "CENTREVILLE CREEK STATION (06008305102)",
    "longitude": -79.834252,
    "latitude": 43.880595
  },
  {
    "id": 195279,
    "name": "CENTREVILLE CREEK STATION (06008305202)",
    "longitude": -79.843517,
    "latitude": 43.889969
  },
  {
    "id": 196271,
    "name": "CENTREVILLE CREEK STATION (06008310402)",
    "longitude": -79.83452,
    "latitude": 43.924181
  },
  {
    "id": 14657,
    "name": "Chandos Lake Outlet 17002108802 (17002108802)",
    "longitude": -77.983078,
    "latitude": 44.842418
  },
  {
    "id": 195706,
    "name": "CHANDOS LAKE OUTLET STATION (17002108802)",
    "longitude": -77.983078,
    "latitude": 44.842418
  },
  {
    "id": 14190,
    "name": "Chapman Drain 08005602102 (08005602102)",
    "longitude": -80.995777,
    "latitude": 43.734552
  },
  {
    "id": 196625,
    "name": "CHAPMAN DRAIN STATION (08005602102)",
    "longitude": -80.995777,
    "latitude": 43.734552
  },
  {
    "id": 15259,
    "name": "Chippawa Canal 11000100102 (11000100102)",
    "longitude": -79.081288,
    "latitude": 43.125119
  },
  {
    "id": 195268,
    "name": "CHIPPAWA CANAL STATION (11000100102)",
    "longitude": -79.081288,
    "latitude": 43.125119
  },
  {
    "id": 13546,
    "name": "Chippawa Power Canal 11000101002 (11000101002)",
    "longitude": -79.045932,
    "latitude": 43.148506
  },
  {
    "id": 196692,
    "name": "CHIPPAWA POWER CANAL STATION (11000101002)",
    "longitude": -79.045932,
    "latitude": 43.148506
  },
  {
    "id": 13381,
    "name": "Chippewa Creek 03013301902 (03013301902)",
    "longitude": -79.461423,
    "latitude": 46.300444
  },
  {
    "id": 15010,
    "name": "Chippewa Creek 03013302502 (03013302502)",
    "longitude": -79.450441,
    "latitude": 46.34466
  },
  {
    "id": 195389,
    "name": "CHIPPEWA CREEK STATION (03013301902)",
    "longitude": -79.461423,
    "latitude": 46.300444
  },
  {
    "id": 195863,
    "name": "CHIPPEWA CREEK STATION (03013302502)",
    "longitude": -79.450441,
    "latitude": 46.34466
  },
  {
    "id": 15041,
    "name": "Chukuni River 19000101502 (19000101502)",
    "longitude": -93.72445,
    "latitude": 51.024604
  },
  {
    "id": 197174,
    "name": "CHUKUNI RIVER STATION (19000101502)",
    "longitude": -93.72445,
    "latitude": 51.024604
  },
  {
    "id": 13433,
    "name": "Clare River 17002600702 (17002600702)",
    "longitude": -77.270687,
    "latitude": 44.480912
  },
  {
    "id": 195330,
    "name": "CLARE RIVER STATION (17002600702)",
    "longitude": -77.270687,
    "latitude": 44.480912
  },
  {
    "id": 13480,
    "name": "Clark Creek 08009900102 (08009900102)",
    "longitude": -81.741972,
    "latitude": 44.076985
  },
  {
    "id": 14037,
    "name": "Clark Creek 13001000102 (13001000102)",
    "longitude": -84.27902,
    "latitude": 46.497814
  },
  {
    "id": 196440,
    "name": "CLARK CREEK STATION (08009900102)",
    "longitude": -81.741972,
    "latitude": 44.076985
  },
  {
    "id": 196847,
    "name": "CLARK CREEK STATION (13001000102)",
    "longitude": -84.27902,
    "latitude": 46.497814
  },
  {
    "id": 14597,
    "name": "Clay Creek 15000600102 (15000600102)",
    "longitude": -82.419559,
    "latitude": 42.765669
  },
  {
    "id": 197090,
    "name": "CLAY CREEK STATION (15000600102)",
    "longitude": -82.419559,
    "latitude": 42.765669
  },
  {
    "id": 13555,
    "name": "Clear Creek 16011100102 (16011100102)",
    "longitude": -80.589511,
    "latitude": 42.581904
  },
  {
    "id": 196642,
    "name": "CLEAR CREEK STATION (16011100102)",
    "longitude": -80.589511,
    "latitude": 42.581904
  },
  {
    "id": 14110,
    "name": "Clear Lake Outlet 17002101602 (17002101602)",
    "longitude": -78.23462,
    "latitude": 44.487332
  },
  {
    "id": 196115,
    "name": "CLEAR LAKE OUTLET STATION (17002101602)",
    "longitude": -78.23462,
    "latitude": 44.487332
  },
  {
    "id": 14093,
    "name": "Cloud River 01011500102 (01011500102)",
    "longitude": -89.446086,
    "latitude": 48.084462
  },
  {
    "id": 197265,
    "name": "CLOUD RIVER STATION (01011500102)",
    "longitude": -89.446086,
    "latitude": 48.084462
  },
  {
    "id": 14497,
    "name": "Clyde River 18343052002 (18343052002)",
    "longitude": -76.364118,
    "latitude": 45.012453
  },
  {
    "id": 14371,
    "name": "Clyde River 18343053002 (18343053002)",
    "longitude": -76.364491,
    "latitude": 45.030175
  },
  {
    "id": 196942,
    "name": "CLYDE RIVER STATION (18343052002)",
    "longitude": -76.364118,
    "latitude": 45.012453
  },
  {
    "id": 196845,
    "name": "CLYDE RIVER STATION (18343053002)",
    "longitude": -76.364491,
    "latitude": 45.030175
  },
  {
    "id": 15122,
    "name": "Coates Creek 03005703402 (03005703402)",
    "longitude": -79.941643,
    "latitude": 44.361381
  },
  {
    "id": 195582,
    "name": "COATES CREEK STATION (03005703402)",
    "longitude": -79.941643,
    "latitude": 44.361381
  },
  {
    "id": 15129,
    "name": "Cobalt Lake 18737000201 (18737000201)",
    "longitude": -79.684212,
    "latitude": 47.395038
  },
  {
    "id": 195711,
    "name": "COBALT LAKE STATION (18737000201)",
    "longitude": -79.684212,
    "latitude": 47.395038
  },
  {
    "id": 14578,
    "name": "Cobbs Lake Creek 18207000802 (18207000802)",
    "longitude": -75.061087,
    "latitude": 45.444863
  },
  {
    "id": 195667,
    "name": "COBBS LAKE CREEK STATION (18207000802)",
    "longitude": -75.061087,
    "latitude": 45.444863
  },
  {
    "id": 196965,
    "name": "COBOURG BROOK STATION (06013300102)",
    "longitude": -78.181737,
    "latitude": 43.958687
  },
  {
    "id": 195559,
    "name": "COBOURG  BROOK STATION (06013300402)",
    "longitude": -78.179943,
    "latitude": 43.955868
  },
  {
    "id": 13422,
    "name": "Cobourg Creek 06013300102 (06013300102)",
    "longitude": -78.181737,
    "latitude": 43.958687
  },
  {
    "id": 14609,
    "name": "Cobourg Creek 06013300202 (06013300202)",
    "longitude": -78.199411,
    "latitude": 43.997634
  },
  {
    "id": 14271,
    "name": "Cobourg Creek 06013300302 (06013300302)",
    "longitude": -78.198558,
    "latitude": 44.007335
  },
  {
    "id": 13236,
    "name": "Cobourg Creek 06013300402 (06013300402)",
    "longitude": -78.179943,
    "latitude": 43.955868
  },
  {
    "id": 196949,
    "name": "COBOURG CREEK STATION (06013300202)",
    "longitude": -78.199411,
    "latitude": 43.997634
  },
  {
    "id": 196332,
    "name": "COBOURG CREEK STATION (06013300302)",
    "longitude": -78.198558,
    "latitude": 44.007335
  },
  {
    "id": 14141,
    "name": "Cobourg Creek West 06013300502 (06013300502)",
    "longitude": -78.210931,
    "latitude": 43.988442
  },
  {
    "id": 196540,
    "name": "COBOURG CREEK WEST STATION (06013300502)",
    "longitude": -78.210931,
    "latitude": 43.988442
  },
  {
    "id": 15037,
    "name": "Cochrane Landfill Drainage 19006404102 (19006404102)",
    "longitude": -81.025935,
    "latitude": 49.080558
  },
  {
    "id": 14678,
    "name": "Cochrane Landfill Drainage 19006404202 (19006404202)",
    "longitude": -81.029829,
    "latitude": 49.078207
  },
  {
    "id": 14520,
    "name": "Cochrane Landfill Drainage 19006404302 (19006404302)",
    "longitude": -81.025984,
    "latitude": 49.074929
  },
  {
    "id": 13502,
    "name": "Cochrane Landfill Drainage 19006404402 (19006404402)",
    "longitude": -81.024832,
    "latitude": 49.075656
  },
  {
    "id": 196066,
    "name": "COCHRANE LANDFILL DRAINAGE STATION (19006404102)",
    "longitude": -81.025935,
    "latitude": 49.080558
  },
  {
    "id": 197159,
    "name": "COCHRANE LANDFILL DRAINAGE STATION (19006404202)",
    "longitude": -81.029829,
    "latitude": 49.078207
  },
  {
    "id": 196098,
    "name": "COCHRANE LANDFILL DRAINAGE STATION (19006404302)",
    "longitude": -81.025984,
    "latitude": 49.074929
  },
  {
    "id": 195931,
    "name": "COCHRANE LANDFILL DRAINAGE STATION (19006404402)",
    "longitude": -81.024832,
    "latitude": 49.075656
  },
  {
    "id": 14580,
    "name": "Colborne Creek 06014600102 (06014600102)",
    "longitude": -77.900739,
    "latitude": 43.987159
  },
  {
    "id": 196291,
    "name": "COLBORNE CREEK STATION (06014600102)",
    "longitude": -77.900739,
    "latitude": 43.987159
  },
  {
    "id": 14998,
    "name": "Cold Creek 06008300902 (06008300902)",
    "longitude": -79.717956,
    "latitude": 43.8881
  },
  {
    "id": 14795,
    "name": "Cold Creek 06008304402 (06008304402)",
    "longitude": -79.71143,
    "latitude": 43.908551
  },
  {
    "id": 13169,
    "name": "Cold Creek 06008304502 (06008304502)",
    "longitude": -79.707792,
    "latitude": 43.905896
  },
  {
    "id": 14448,
    "name": "Cold Creek 06008306102 (06008306102)",
    "longitude": -79.713389,
    "latitude": 43.889102
  },
  {
    "id": 13678,
    "name": "Cold Creek 17002104602 (17002104602)",
    "longitude": -77.595696,
    "latitude": 44.201043
  },
  {
    "id": 13522,
    "name": "Cold Creek 17002113302 (17002113302)",
    "longitude": -77.786858,
    "latitude": 44.134685
  },
  {
    "id": 197004,
    "name": "COLD CREEK STATION (06008300902)",
    "longitude": -79.717956,
    "latitude": 43.8881
  },
  {
    "id": 196470,
    "name": "COLD CREEK STATION (06008304502)",
    "longitude": -79.707792,
    "latitude": 43.905896
  },
  {
    "id": 196481,
    "name": "COLD CREEK STATION (06008306102)",
    "longitude": -79.713389,
    "latitude": 43.889102
  },
  {
    "id": 196724,
    "name": "COLD CREEK. STATION (17002104602)",
    "longitude": -77.595696,
    "latitude": 44.201043
  },
  {
    "id": 196916,
    "name": "COLD CREEK STATION (17002113302)",
    "longitude": -77.786858,
    "latitude": 44.134685
  },
  {
    "id": 14474,
    "name": "Cold Creek West 06008304102 (06008304102)",
    "longitude": -79.732579,
    "latitude": 43.903312
  },
  {
    "id": 195528,
    "name": "COLD CREEK WEST STATION (06008304102)",
    "longitude": -79.732579,
    "latitude": 43.903312
  },
  {
    "id": 14843,
    "name": "Coldwater Creek 01009500102 (01009500102)",
    "longitude": -88.539417,
    "latitude": 48.804008
  },
  {
    "id": 15056,
    "name": "Cold Water Creek 13001100802 (13001100802)",
    "longitude": -84.279588,
    "latitude": 46.568181
  },
  {
    "id": 14505,
    "name": "Coldwater Creek 13001101002 (13001101002)",
    "longitude": -84.277716,
    "latitude": 46.565654
  },
  {
    "id": 195913,
    "name": "COLDWATER CREEK STATION (01009500102)",
    "longitude": -88.539417,
    "latitude": 48.804008
  },
  {
    "id": 196668,
    "name": "COLD WATER CREEK STATION (13001100802)",
    "longitude": -84.279588,
    "latitude": 46.568181
  },
  {
    "id": 195367,
    "name": "COLDWATER CREEK STATION (13001101002)",
    "longitude": -84.277716,
    "latitude": 46.565654
  },
  {
    "id": 14851,
    "name": "Coldwater River 03007600102 (03007600102)",
    "longitude": -79.644426,
    "latitude": 44.70953
  },
  {
    "id": 14921,
    "name": "Coldwater River 03007600302 (03007600302)",
    "longitude": -79.643582,
    "latitude": 44.707297
  },
  {
    "id": 13856,
    "name": "Coldwater River 03007600402 (03007600402)",
    "longitude": -79.634571,
    "latitude": 44.645461
  },
  {
    "id": 195702,
    "name": "COLDWATER RIVER STATION (03007600102)",
    "longitude": -79.644426,
    "latitude": 44.70953
  },
  {
    "id": 195769,
    "name": "COLDWATER RIVER STATION (03007600302)",
    "longitude": -79.643582,
    "latitude": 44.707297
  },
  {
    "id": 196638,
    "name": "COLDWATER RIVER STATION (03007600402)",
    "longitude": -79.634571,
    "latitude": 44.645461
  },
  {
    "id": 13331,
    "name": "Coleman Drain 16005100102 (16005100102)",
    "longitude": -81.881893,
    "latitude": 42.340249
  },
  {
    "id": 197206,
    "name": "COLEMAN DRAIN STATION (16005100102)",
    "longitude": -81.881893,
    "latitude": 42.340249
  },
  {
    "id": 13251,
    "name": "Collins Creek 06018300102 (06018300102)",
    "longitude": -76.615566,
    "latitude": 44.238744
  },
  {
    "id": 13214,
    "name": "Collins Creek 06018300202 (06018300202)",
    "longitude": -76.612697,
    "latitude": 44.256426
  },
  {
    "id": 195572,
    "name": "COLLINS CREEK STATION (06018300102)",
    "longitude": -76.615566,
    "latitude": 44.238744
  },
  {
    "id": 195927,
    "name": "COLLINS CREEK STATION (06018300202)",
    "longitude": -76.612697,
    "latitude": 44.256426
  },
  {
    "id": 13430,
    "name": "Conestogo River 16018401702 (16018401702)",
    "longitude": -80.715859,
    "latitude": 43.675446
  },
  {
    "id": 14288,
    "name": "Conestogo River 16018402902 (16018402902)",
    "longitude": -80.514399,
    "latitude": 43.524852
  },
  {
    "id": 13880,
    "name": "Conestogo River 16018407502 (16018407502)",
    "longitude": -80.669933,
    "latitude": 43.756874
  },
  {
    "id": 15111,
    "name": "Conestogo River 16018407702 (16018407702)",
    "longitude": -80.702068,
    "latitude": 43.654826
  },
  {
    "id": 15117,
    "name": "Conestogo River 16018407802 (16018407802)",
    "longitude": -80.553316,
    "latitude": 43.541143
  },
  {
    "id": 14817,
    "name": "Conestogo River 16018410002 (16018410002)",
    "longitude": -80.637239,
    "latitude": 43.783209
  },
  {
    "id": 13950,
    "name": "Conestogo River 16018413402 (16018413402)",
    "longitude": -80.505412,
    "latitude": 43.538816
  },
  {
    "id": 196048,
    "name": "CONESTOGO RIVER STATION (16018401702)",
    "longitude": -80.715859,
    "latitude": 43.675446
  },
  {
    "id": 195688,
    "name": "CONESTOGO RIVER STATION (16018402902)",
    "longitude": -80.514399,
    "latitude": 43.524852
  },
  {
    "id": 196887,
    "name": "CONESTOGO RIVER STATION (16018407502)",
    "longitude": -80.669933,
    "latitude": 43.756874
  },
  {
    "id": 195755,
    "name": "CONESTOGO RIVER STATION (16018407702)",
    "longitude": -80.702068,
    "latitude": 43.654826
  },
  {
    "id": 196981,
    "name": "CONESTOGO RIVER STATION (16018407802)",
    "longitude": -80.553316,
    "latitude": 43.541143
  },
  {
    "id": 196317,
    "name": "CONESTOGO RIVER STATION (16018410002)",
    "longitude": -80.637239,
    "latitude": 43.783209
  },
  {
    "id": 196209,
    "name": "Conestogo River STATION (16018413402)",
    "longitude": -80.505412,
    "latitude": 43.538816
  },
  {
    "id": 14541,
    "name": "Coniston Creek 03013400502 (03013400502)",
    "longitude": -80.841973,
    "latitude": 46.493972
  },